[{"url":["PA_0002.png","PA_0002-septembre2016.jpg"],"name":"PA_0002","longitude":"2.3504940000","latitude":"48.8610710000","address":" 45 rue Quincampoix","points":10,"reportDate":2019,"city":"Paris - 4&egrave;me arrondissement","state":"OK"},{"url":["PA_0003.png","PA_0003-mars2019.jpg"],"name":"PA_0003","longitude":"2.3485190000","latitude":"48.8488510000","address":" 14 rue de la Montagne Sainte-Geneviève","points":10,"reportDate":2019,"city":"Paris - 5&egrave;me arrondissement","state":"Non visible"},{"url":["PA_0004.png","PA_0004-janvier2016.jpg"],"name":"PA_0004","longitude":"2.3510850000","latitude":"48.8471050000","address":" 22 rue Monge","points":10,"reportDate":2019,"city":"Paris - 5&egrave;me arrondissement","state":"OK"},{"url":["PA_0005.png","PA_0005-mars2015.jpg"],"name":"PA_0005","longitude":"2.3337600000","latitude":"48.8518100000","address":" 25 rue Guisarde","points":10,"reportDate":2019,"city":"Paris - 6&egrave;me arrondissement","state":"OK"},{"url":["PA_0006.png","PA_0006-octobre2018.jpg"],"name":"PA_0006","longitude":"2.3367690000","latitude":"48.8550630000","address":" 40 rue de Seine","points":10,"reportDate":2019,"city":"Paris - 6&egrave;me arrondissement","state":"D&eacute;grad&eacute;"},{"url":["PA_0007.png","PA_0007-juin2018.jpg"],"name":"PA_0007","longitude":"2.3635170000","latitude":"48.8730730000","address":" 89 quai de Valmy","points":10,"reportDate":2018,"city":"Paris - 10&egrave;me arrondissement","state":"OK"},{"url":["PA_0008.png","PA_0008-septembre2018.jpg"],"name":"PA_0008","longitude":"2.3975940000","latitude":"48.8657870000","address":" Impasse Cordon-Boussard","points":10,"reportDate":2018,"city":"Paris - 20&egrave;me arrondissement","state":"OK"},{"url":["PA_0010.png","PA_0010-decembre2018.jpg"],"name":"PA_0010","longitude":"2.3757400000","latitude":"48.8532600000","address":" 30 rue de Charonne","points":10,"reportDate":2018,"city":"Paris - 11&egrave;me arrondissement","state":"OK"},{"url":["PA_0013.png","PA_0013-janvier2016.jpg"],"name":"PA_0013","longitude":"2.3754630000","latitude":"48.8474010000","address":" 47 avenue Daumesnil","points":10,"reportDate":2019,"city":"Paris - 12&egrave;me arrondissement","state":"OK"},{"url":["PA_0014.png","PA_0014-avril2015.jpg"],"name":"PA_0014","longitude":"2.3727156221","latitude":"48.8488364940","address":" 59 avenue Ledru-Rollin","points":10,"reportDate":2019,"city":"Paris - 12&egrave;me arrondissement","state":"Un peu d&eacute;grad&eacute;"},{"url":["PA_0015.png","PA_0015-janvier2016.jpg"],"name":"PA_0015","longitude":"2.3808310000","latitude":"48.8481170000","address":" 24 rue de Cîteaux","points":10,"reportDate":2019,"city":"Paris - 12&egrave;me arrondissement","state":"OK"},{"url":["PA_0016.png","PA_0016-juin2016.jpg"],"name":"PA_0016","longitude":"2.3743750000","latitude":"48.8494900000","address":" 76 avenue Ledru-Rollin","points":10,"reportDate":2019,"city":"Paris - 12&egrave;me arrondissement","state":"OK"},{"url":["PA_0017.png","PA_0017-mai2018.jpg"],"name":"PA_0017","longitude":"2.3619390000","latitude":"48.8157510000","address":" face à la rue Voltaire","points":10,"reportDate":2018,"city":"Paris - 13&egrave;me arrondissement","state":"OK"},{"url":["PA_0018.png","PA_0018-decembre2018.jpg"],"name":"PA_0018","longitude":"2.3412770000","latitude":"48.8885380000","address":" 16 rue Saint-Vincent","points":10,"reportDate":2018,"city":"Paris - 18&egrave;me arrondissement","state":"OK"},{"url":["PA_0019.png","PA_0019-janvier2019.jpg"],"name":"PA_0019","longitude":"2.3640430000","latitude":"48.8732030000","address":" pont piéton de la Grange aux Belles","points":10,"reportDate":2019,"city":"Paris - 10&egrave;me arrondissement","state":"OK"},{"url":["PA_0020.png"],"name":"PA_0020","longitude":"2.3459080000","latitude":"48.8707180000","address":" 20 rue Saint-Fiacre","points":10,"reportDate":2018,"city":"Paris - 2&egrave;me arrondissement","state":"D&eacute;truit !"},{"url":["PA_0021.png","PA_0021-juin2018.jpg"],"name":"PA_0021","longitude":"2.3455640000","latitude":"48.8701370000","address":" 12 rue Saint-Fiacre","points":10,"reportDate":2019,"city":"Paris - 2&egrave;me arrondissement","state":"OK"},{"url":["PA_0022.png","PA_0022-avril2015.jpg"],"name":"PA_0022","longitude":"2.3646542420","latitude":"48.8598428440","address":" 68 rue de Turenne","points":10,"reportDate":2015,"city":"Paris - 3&egrave;me arrondissement","state":"OK"},{"url":["PA_0023.png","PA_0023-decembre2018.jpg"],"name":"PA_0023","longitude":"2.3534300000","latitude":"48.8622000000","address":" 5 impasse Beaubourg","points":10,"reportDate":2018,"city":"Paris - 3&egrave;me arrondissement","state":"OK"},{"url":["PA_0024.png","PA_0024-septembre2017.jpg"],"name":"PA_0024","longitude":"2.3545260000","latitude":"48.8333850000","address":" 73 avenue des Gobelins","points":10,"reportDate":2019,"city":"Paris - 13&egrave;me arrondissement","state":"OK"},{"url":["PA_0025.png","PA_0025-decembre2018.jpg"],"name":"PA_0025","longitude":"2.3634560000","latitude":"48.8646340000","address":" 2 rue de la Corderie","points":10,"reportDate":2018,"city":"Paris - 3&egrave;me arrondissement","state":"OK"},{"url":["PA_0027.png"],"name":"PA_0027","longitude":"2.3579490000","latitude":"48.8612070000","address":" fontaine des Haudriettes","points":10,"reportDate":2019,"city":"Paris - 3&egrave;me arrondissement","state":"D&eacute;truit !"},{"url":["PA_0028.png","PA_0028-mars2017.jpg"],"name":"PA_0028","longitude":"2.3766190000","latitude":"48.8539230000","address":" face au 5 rue Keller","points":10,"reportDate":2018,"city":"Paris - 11&egrave;me arrondissement","state":"OK"},{"url":["PA_0029.png","PA_0029-juin2018.jpg"],"name":"PA_0029","longitude":"2.3598940000","latitude":"48.8625970000","address":" 21 rue Pastourelle","points":20,"reportDate":2018,"city":"Paris - 3&egrave;me arrondissement","state":"OK"},{"url":["PA_0030.png","PA_0030-juin2016.jpg"],"name":"PA_0030","longitude":"2.3505110000","latitude":"48.8609590000","address":" 44 rue Quincampoix","points":10,"reportDate":2016,"city":"Paris - 4&egrave;me arrondissement","state":"OK"},{"url":["PA_0031.png","PA_0031-septembre2017.jpg"],"name":"PA_0031","longitude":"2.3506800000","latitude":"48.8612500000","address":" 30 rue de Venise","points":10,"reportDate":2018,"city":"Paris - 4&egrave;me arrondissement","state":"D&eacute;truit !"},{"url":["PA_0032.png","PA_0032-avril2015.jpg"],"name":"PA_0032","longitude":"2.3627500000","latitude":"48.8609600000","address":" 108 rue Vieille du Temple","points":10,"reportDate":2015,"city":"Paris - 3&egrave;me arrondissement","state":"Un peu d&eacute;grad&eacute;"},{"url":["PA_0034.png","PA_0034-avril2015.jpg"],"name":"PA_0034","longitude":"2.3585030000","latitude":"48.8586450000","address":" 61 rue Vieille du Temple","points":10,"reportDate":2019,"city":"Paris - 4&egrave;me arrondissement","state":"Un peu d&eacute;grad&eacute;"},{"url":["PA_0035.png"],"name":"PA_0035","longitude":"2.3617490000","latitude":"48.8572170000","address":" 24 rue Pavée","points":30,"reportDate":2019,"city":"Paris - 4&egrave;me arrondissement","state":"OK"},{"url":["PA_0036.png","PA_0036-avril2015.jpg"],"name":"PA_0036","longitude":"2.3733050000","latitude":"48.8371910000","address":" face au 7 boulevard Vincent Auriol","points":10,"reportDate":2017,"city":"Paris - 13&egrave;me arrondissement","state":"Un peu d&eacute;grad&eacute;"},{"url":["PA_0037.png","PA_0037-septembre2018.jpg"],"name":"PA_0037","longitude":"2.3697630000","latitude":"48.8555700000","address":" 8 rue du Pasteur Wagner","points":10,"reportDate":2018,"city":"Paris - 11&egrave;me arrondissement","state":"OK"},{"url":["PA_0038.png","PA_0038-septembre2018.jpg"],"name":"PA_0038","longitude":"2.3749370000","latitude":"48.8532030000","address":" 1 passage Thérié","points":10,"reportDate":2019,"city":"Paris - 11&egrave;me arrondissement","state":"D&eacute;truit !"},{"url":["PA_0039.png","PA_0039-decembre2018.jpg"],"name":"PA_0039","longitude":"2.3465970000","latitude":"48.8483250000","address":" 2 rue d'Écosse","points":10,"reportDate":2019,"city":"Paris - 5&egrave;me arrondissement","state":"OK"},{"url":["PA_0040.png","PA_0040-avril2015.jpg"],"name":"PA_0040","longitude":"2.3481680452","latitude":"48.8471446920","address":" 45 rue de la Montagne Sainte-Geneviève","points":10,"reportDate":2019,"city":"Paris - 5&egrave;me arrondissement","state":"D&eacute;grad&eacute;"},{"url":["PA_0041.png","PA_0041-juillet2016.jpg"],"name":"PA_0041","longitude":"2.3860050000","latitude":"48.8976800000","address":" Porte de la Villette","points":10,"reportDate":2016,"city":"Paris - 19&egrave;me arrondissement","state":"OK"},{"url":["PA_0043.png","PA_0043-juin2018.jpg"],"name":"PA_0043","longitude":"2.3426800000","latitude":"48.8537000000","address":" 26 rue de l'Hirondelle","points":10,"reportDate":2019,"city":"Paris - 6&egrave;me arrondissement","state":"OK"},{"url":["PA_0044.png","PA_0044-mars2015.jpg"],"name":"PA_0044","longitude":"2.3384892940","latitude":"48.8535727070","address":" 2 rue de l'Ancienne Comédie","points":10,"reportDate":2019,"city":"Paris - 6&egrave;me arrondissement","state":"OK"},{"url":["PA_0046.png","PA_0046-octobre2018.jpg"],"name":"PA_0046","longitude":"2.3391780000","latitude":"48.8522670000","address":" statue de Danton","points":10,"reportDate":2019,"city":"Paris - 6&egrave;me arrondissement","state":"D&eacute;truit !"},{"url":["PA_0047.png","PA_0047-juin2018.jpg"],"name":"PA_0047","longitude":"2.3779600000","latitude":"48.8516000000","address":" 4bis passage de la Main d'Or","points":10,"reportDate":2019,"city":"Paris - 11&egrave;me arrondissement","state":"D&eacute;truit !"},{"url":["PA_0048.png","PA_0048-septembre2018.jpg"],"name":"PA_0048","longitude":"2.3693000000","latitude":"48.8558600000","address":" 10 rue Amelot","points":20,"reportDate":2018,"city":"Paris - 11&egrave;me arrondissement","state":"OK"},{"url":["PA_0049.png","PA_0049-janvier2016.jpg"],"name":"PA_0049","longitude":"2.3783790000","latitude":"48.8659570000","address":" 117 rue Oberkampf","points":10,"reportDate":2019,"city":"Paris - 11&egrave;me arrondissement","state":"D&eacute;grad&eacute;"},{"url":["PA_0051.png","PA_0051-avril2019.jpg"],"name":"PA_0051","longitude":"2.3744000000","latitude":"48.8528400000","address":" 13 rue de Charonne","points":10,"reportDate":2019,"city":"Paris - 11&egrave;me arrondissement","state":"OK"},{"url":["PA_0053.png","PA_0053-avril2015.jpg"],"name":"PA_0053","longitude":"2.3723670000","latitude":"48.8369080000","address":" face au 16 boulevard Vincent Auriol","points":10,"reportDate":2019,"city":"Paris - 13&egrave;me arrondissement","state":"D&eacute;grad&eacute;"},{"url":["PA_0055.png","PA_0055-janvier2016.jpg"],"name":"PA_0055","longitude":"2.3528810000","latitude":"48.8277650000","address":" 43 rue du Moulin des Prés","points":10,"reportDate":2019,"city":"Paris - 13&egrave;me arrondissement","state":"OK"},{"url":["PA_0056.png","PA_0056-juin2016.jpg"],"name":"PA_0056","longitude":"2.3516040000","latitude":"48.8287240000","address":" 10 rue Simonet","points":10,"reportDate":2016,"city":"Paris - 13&egrave;me arrondissement","state":"OK"},{"url":["PA_0058.png","PA_0058-janvier2016.jpg"],"name":"PA_0058","longitude":"2.3706420000","latitude":"48.8334430000","address":" 14 rue Louise Weiss","points":10,"reportDate":2019,"city":"Paris - 13&egrave;me arrondissement","state":"OK"},{"url":["PA_0059.png","PA_0059-decembre2015.jpg"],"name":"PA_0059","longitude":"2.2846360000","latitude":"48.8443210000","address":" 1 rue Lacordaire","points":10,"reportDate":2018,"city":"Paris - 15&egrave;me arrondissement","state":"D&eacute;grad&eacute;"},{"url":["PA_0060.png","PA_0060-septembre2018.jpg"],"name":"PA_0060","longitude":"2.3444860000","latitude":"48.8636100000","address":" église Saint-Eustache","points":10,"reportDate":2018,"city":"Paris - 1er arrondissement","state":"OK"},{"url":["PA_0061.png","PA_0061-juin2016.jpg"],"name":"PA_0061","longitude":"2.3472590000","latitude":"48.8663620000","address":" 2 rue des Petits Carreaux","points":10,"reportDate":2019,"city":"Paris - 2&egrave;me arrondissement","state":"D&eacute;truit !"},{"url":["PA_0062.png","PA_0062-juin2016.jpg"],"name":"PA_0062","longitude":"2.3454563319","latitude":"48.8676952900","address":" 99 rue de Réaumur","points":10,"reportDate":2019,"city":"Paris - 2&egrave;me arrondissement","state":"OK"},{"url":["PA_0063.png","PA_0063-avril2015.jpg"],"name":"PA_0063","longitude":"2.3798630000","latitude":"48.8534210000","address":" 74 rue de Charonne","points":10,"reportDate":2018,"city":"Paris - 11&egrave;me arrondissement","state":"OK"},{"url":["PA_0064.png","PA_0064-octobre2018.jpg"],"name":"PA_0064","longitude":"2.2973970000","latitude":"48.8647660000","address":" devant le Musée d'Art Moderne","points":10,"reportDate":2019,"city":"Paris - 16&egrave;me arrondissement","state":"Tr&egrave;s d&eacute;grad&eacute;"},{"url":["PA_0065.png","PA_0065-octobre2018.jpg"],"name":"PA_0065","longitude":"2.3739140000","latitude":"48.8530920000","address":" 30 rue de Lappe","points":10,"reportDate":2018,"city":"Paris - 11&egrave;me arrondissement","state":"OK"},{"url":["PA_0066.png","PA_0066-decembre2018.jpg"],"name":"PA_0066","longitude":"2.3380700000","latitude":"48.8856390000","address":" PA_0067 & PA_0068","points":10,"reportDate":2019,"city":"Paris - 18&egrave;me arrondissement","state":"OK"},{"url":["PA_0069.png","PA_0069-avril2015.jpg"],"name":"PA_0069","longitude":"2.3541710000","latitude":"48.8346560000","address":" 40 rue du Banquier","points":10,"reportDate":2018,"city":"Paris - 13&egrave;me arrondissement","state":"Un peu d&eacute;grad&eacute;"},{"url":["PA_0070.png","PA_0070-mars2015.jpg"],"name":"PA_0070","longitude":"2.3554650000","latitude":"48.8568290000","address":" 1 rue de la Verrerie","points":10,"reportDate":2019,"city":"Paris - 4&egrave;me arrondissement","state":"Un peu d&eacute;grad&eacute;"},{"url":["PA_0071.png","PA_0071-mars2017.jpg"],"name":"PA_0071","longitude":"2.3590200000","latitude":"48.8548020000","address":" 5 rue de Fourcy","points":20,"reportDate":2019,"city":"Paris - 4&egrave;me arrondissement","state":"OK"},{"url":["PA_0072.png","PA_0072-juillet2016.jpg"],"name":"PA_0072","longitude":"2.3674866557","latitude":"48.8616003890","address":" rue Charles Luizet","points":10,"reportDate":2018,"city":"Paris - 11&egrave;me arrondissement","state":"OK"},{"url":["PA_0073.png","PA_0073-avril2015.jpg"],"name":"PA_0073","longitude":"2.3793760000","latitude":"48.8684000000","address":" 93 rue Jean-Pierre Timbaud","points":10,"reportDate":2015,"city":"Paris - 11&egrave;me arrondissement","state":"Un peu d&eacute;grad&eacute;"},{"url":["PA_0075.png","PA_0075-octobre2018.jpg"],"name":"PA_0075","longitude":"2.3324660000","latitude":"48.8342950000","address":" sur le piédestal du lion","points":10,"reportDate":2019,"city":"Paris - 14&egrave;me arrondissement","state":"OK"},{"url":["PA_0076.png","PA_0076-septembre2018.jpg"],"name":"PA_0076","longitude":"2.3570130000","latitude":"48.8383300000","address":" statue de Jeanne \"au secours\" d'Arc","points":10,"reportDate":2019,"city":"Paris - 13&egrave;me arrondissement","state":"OK"},{"url":["PA_0077.png","PA_0077-mars2015.jpg"],"name":"PA_0077","longitude":"2.3314390000","latitude":"48.8471330000","address":" 10 rue de Fleurus","points":10,"reportDate":2015,"city":"Paris - 6&egrave;me arrondissement","state":"OK"},{"url":["PA_0078.png","PA_0078-juin2016.jpg"],"name":"PA_0078","longitude":"2.3528850000","latitude":"48.8289530000","address":" 21 passage du Moulin des Prés","points":10,"reportDate":2017,"city":"Paris - 13&egrave;me arrondissement","state":"D&eacute;grad&eacute;"},{"url":["PA_0079.png","PA_0079-septembre2016.jpg"],"name":"PA_0079","longitude":"2.3514600000","latitude":"48.8278800000","address":" 5 rue Chéreau","points":10,"reportDate":2016,"city":"Paris - 13&egrave;me arrondissement","state":"OK"},{"url":["PA_0080.png","PA_0080-juillet2016.jpg"],"name":"PA_0080","longitude":"2.3308890000","latitude":"48.8816280000","address":" 5 rue Ballu","points":10,"reportDate":2019,"city":"Paris - 9&egrave;me arrondissement","state":"OK"},{"url":["PA_0082.png","PA_0082-septembre2018.jpg"],"name":"PA_0082","longitude":"2.4085960000","latitude":"48.8468920000","address":" pasage de la Voûte","points":10,"reportDate":2019,"city":"Paris - 12&egrave;me arrondissement","state":"OK"},{"url":["PA_0083.png","PA_0083-decembre2018.jpg"],"name":"PA_0083","longitude":"2.3645550012","latitude":"48.8645524310","address":" fontaine Boucherat","points":10,"reportDate":2018,"city":"Paris - 3&egrave;me arrondissement","state":"OK"},{"url":["PA_0084.png","PA_0084-septembre2016.jpg"],"name":"PA_0084","longitude":"2.3666770000","latitude":"48.8560070000","address":" 15 rue du Pas de la Mule","points":10,"reportDate":2019,"city":"Paris - 4&egrave;me arrondissement","state":"OK"},{"url":["PA_0085.png","PA_0085-septembre2018.jpg"],"name":"PA_0085","longitude":"2.3781920000","latitude":"48.8531940000","address":" 58 rue de Charonne","points":20,"reportDate":2018,"city":"Paris - 11&egrave;me arrondissement","state":"OK"},{"url":["PA_0086.png"],"name":"PA_0086","longitude":"2.3602040000","latitude":"48.8505630000","address":" pont de Sully","points":10,"reportDate":2019,"city":"Paris - 4&egrave;me arrondissement","state":"D&eacute;truit !"},{"url":["PA_0087.png","PA_0087-juin2018.jpg"],"name":"PA_0087","longitude":"2.3741620000","latitude":"48.8373940000","address":" escalier du port de la Gare","points":10,"reportDate":2019,"city":"Paris - 13&egrave;me arrondissement","state":"OK"},{"url":["PA_0088.png"],"name":"PA_0088","longitude":"2.3351680000","latitude":"48.8626660000","address":" sortie nord du Carrousel","points":30,"reportDate":2019,"city":"Paris - 1er arrondissement","state":"D&eacute;truit !"},{"url":["PA_0089.png"],"name":"PA_0089","longitude":"2.3464830000","latitude":"48.8627510000","address":" 1 rue Baltard","points":10,"reportDate":2019,"city":"Paris - 1er arrondissement","state":"OK"},{"url":["PA_0090.png","PA_0090-septembre2018.jpg"],"name":"PA_0090","longitude":"2.3489900000","latitude":"48.8637200000","address":" métro Etienne Marcel","points":10,"reportDate":2019,"city":"Paris - 1er arrondissement","state":"D&eacute;truit !"},{"url":["PA_0092.png","PA_0092-juin2018.jpg"],"name":"PA_0092","longitude":"2.3473834991","latitude":"48.8603104700","address":" 8 rue de la Ferronnerie","points":10,"reportDate":2018,"city":"Paris - 1er arrondissement","state":"Un peu d&eacute;grad&eacute;"},{"url":["PA_0093.png","PA_0093-septembre2016.jpg"],"name":"PA_0093","longitude":"2.3334810000","latitude":"48.8598320000","address":" pont du Carroussel","points":10,"reportDate":2016,"city":"Paris - 1er arrondissement","state":"OK"},{"url":["PA_0094.png","PA_0094-fevrier2018.jpg"],"name":"PA_0094","longitude":"2.3326300000","latitude":"48.8470400000","address":" porte Fleurus du jardin du Luxembourg","points":10,"reportDate":2018,"city":"Paris - 6&egrave;me arrondissement","state":"OK"},{"url":["PA_0095.png","PA_0095-septembre2016.jpg"],"name":"PA_0095","longitude":"2.3376160000","latitude":"48.8672420000","address":" 65 rue Richelieu","points":10,"reportDate":2019,"city":"Paris - 2&egrave;me arrondissement","state":"OK"},{"url":["PA_0097.png","PA_0097-septembre2018.jpg"],"name":"PA_0097","longitude":"2.3890050000","latitude":"48.8394400000","address":" 205 rue de Charenton","points":10,"reportDate":2018,"city":"Paris - 12&egrave;me arrondissement","state":"OK"},{"url":["PA_0098.png","PA_0098-juin2018.jpg"],"name":"PA_0098","longitude":"2.3437020000","latitude":"48.8531920000","address":" sur la fontaine Saint-Michel","points":10,"reportDate":2019,"city":"Paris - 6&egrave;me arrondissement","state":"D&eacute;truit !"},{"url":["PA_0102.png","PA_0102-octobre2018.jpg"],"name":"PA_0102","longitude":"2.3619750000","latitude":"48.8399070000","address":" 42 boulevard de l'Hôpital","points":30,"reportDate":2018,"city":"Paris - 13&egrave;me arrondissement","state":"OK"},{"url":["PA_0103.png","PA_0103-janvier2019.jpg"],"name":"PA_0103","longitude":"2.3540450000","latitude":"48.8592530000","address":" 30 rue du Temple","points":30,"reportDate":2019,"city":"Paris - 4&egrave;me arrondissement","state":"OK"},{"url":["PA_0105.png","PA_0105-septembre2018.jpg"],"name":"PA_0105","longitude":"2.3638000000","latitude":"48.8674400000","address":" à droite du lion de la statue","points":20,"reportDate":2019,"city":"Paris - 3&egrave;me arrondissement","state":"OK"},{"url":["PA_0106.png","PA_0106-decembre2018.jpg"],"name":"PA_0106","longitude":"2.3618888854","latitude":"48.8539009000","address":" 2 rue Charlemagne","points":10,"reportDate":2018,"city":"Paris - 4&egrave;me arrondissement","state":"Un peu d&eacute;grad&eacute;"},{"url":["PA_0109.png"],"name":"PA_0109","longitude":"2.3525340000","latitude":"48.8597640000","address":" tuyau d'évacuation du Centre Pompidou","points":30,"reportDate":2016,"city":"Paris - 4&egrave;me arrondissement","state":"D&eacute;truit !"},{"url":["PA_0110.png","PA_0110-juin2016.jpg"],"name":"PA_0110","longitude":"2.3512500000","latitude":"48.8626300000","address":" 91 rue Quincampoix","points":20,"reportDate":2019,"city":"Paris - 3&egrave;me arrondissement","state":"OK"},{"url":["PA_0111.png","PA_0111-juillet2015.jpg"],"name":"PA_0111","longitude":"2.3446510000","latitude":"48.8915950000","address":" 20 rue Hermel","points":10,"reportDate":2019,"city":"Paris - 18&egrave;me arrondissement","state":"D&eacute;truit !"},{"url":["PA_0112.png","PA_0112-avril2015.jpg"],"name":"PA_0112","longitude":"2.3269430000","latitude":"48.8350000000","address":" 19 rue Gassendi","points":10,"reportDate":2019,"city":"Paris - 14&egrave;me arrondissement","state":"OK"},{"url":["PA_0113.png","PA_0113-avril2015.jpg"],"name":"PA_0113","longitude":"2.3514230000","latitude":"48.8465960000","address":" 46 rue du Cardinal Lemoine","points":10,"reportDate":2019,"city":"Paris - 5&egrave;me arrondissement","state":"OK"},{"url":["PA_0114.png","PA_0114-janvier2016.jpg"],"name":"PA_0114","longitude":"2.3572750000","latitude":"48.8571530000","address":" 26 rue Vieille du Temple","points":30,"reportDate":2019,"city":"Paris - 4&egrave;me arrondissement","state":"OK"},{"url":["PA_0115.png","PA_0115-juillet2016.jpg"],"name":"PA_0115","longitude":"2.3596390000","latitude":"48.8585720000","address":" impasse des Arbalétriers","points":30,"reportDate":2018,"city":"Paris - 3&egrave;me arrondissement","state":"OK"},{"url":["PA_0116.png","PA_0116-septembre2018.jpg"],"name":"PA_0116","longitude":"2.3727640000","latitude":"48.8547190000","address":" 45 passage Thiéré","points":20,"reportDate":2019,"city":"Paris - 11&egrave;me arrondissement","state":"Tr&egrave;s d&eacute;grad&eacute;"},{"url":["PA_0117.png","PA_0117-avril2019.jpg"],"name":"PA_0117","longitude":"2.3731130000","latitude":"48.8544140000","address":" 31 passage Thiéré sur le trottoir","points":10,"reportDate":2019,"city":"Paris - 11&egrave;me arrondissement","state":"OK"},{"url":["PA_0118.png","PA_0118-juin2018.jpg"],"name":"PA_0118","longitude":"2.3753470000","latitude":"48.8355760000","address":" 1 rue Raymond Ayron","points":10,"reportDate":2019,"city":"Paris - 13&egrave;me arrondissement","state":"D&eacute;truit !"},{"url":["PA_0119.png","PA_0119-septembre2017.jpg"],"name":"PA_0119","longitude":"2.4027890000","latitude":"48.8594260000","address":" 102 rue de Bagnolet","points":10,"reportDate":2017,"city":"Paris - 20&egrave;me arrondissement","state":"OK"},{"url":["PA_0120.png","PA_0120-janvier2019.jpg"],"name":"PA_0120","longitude":"2.3672280000","latitude":"48.8694740000","address":" 44 quai de Jemmapes","points":30,"reportDate":2019,"city":"Paris - 10&egrave;me arrondissement","state":"D&eacute;truit !"},{"url":["PA_0121.png","PA_0121-octobre2018.jpg"],"name":"PA_0121","longitude":"2.3327970000","latitude":"48.8576290000","address":" 7 rue des Saints-Pères","points":10,"reportDate":2018,"city":"Paris - 6&egrave;me arrondissement","state":"OK"},{"url":["PA_0122.png","PA_0122-octobre2018.jpg"],"name":"PA_0122","longitude":"2.3531320000","latitude":"48.8404870000","address":" rue de la Clef","points":20,"reportDate":2019,"city":"Paris - 5&egrave;me arrondissement","state":"Un peu d&eacute;grad&eacute;"},{"url":["PA_0124.png","PA_0124-mars2019.jpg"],"name":"PA_0124","longitude":"2.3243850000","latitude":"48.8733560000","address":" 40 rue de l'Arcade","points":10,"reportDate":2019,"city":"Paris - 8&egrave;me arrondissement","state":"OK"},{"url":["PA_0125.png","PA_0125-septembre2018.jpg"],"name":"PA_0125","longitude":"2.3958100000","latitude":"48.8395400000","address":" sud de la Fontaine aux Lions","points":20,"reportDate":2019,"city":"Paris - 12&egrave;me arrondissement","state":"OK"},{"url":["PA_0126.png","PA_0126-juin2018.jpg"],"name":"PA_0126","longitude":"2.2926810000","latitude":"48.8592220000","address":" pont d'Iéna (rive gauche)","points":10,"reportDate":2018,"city":"Paris - 7&egrave;me arrondissement","state":"OK"},{"url":["PA_0128.png","PA_0128-fevrier2018.jpg"],"name":"PA_0128","longitude":"2.3737600000","latitude":"48.8520000000","address":" 1 rue de Charonne","points":10,"reportDate":2019,"city":"Paris - 11&egrave;me arrondissement","state":"D&eacute;truit !"},{"url":["PA_0131.png","PA_0131-avril2015.jpg"],"name":"PA_0131","longitude":"2.4031520000","latitude":"48.8564880000","address":" 53 rue des Orteaux","points":20,"reportDate":2015,"city":"Paris - 20&egrave;me arrondissement","state":"OK"},{"url":["PA_0132.png","PA_0132-juin2016.jpg"],"name":"PA_0132","longitude":"2.4055410000","latitude":"48.8562550000","address":" 97 rue des Maraîchers","points":30,"reportDate":2016,"city":"Paris - 20&egrave;me arrondissement","state":"OK"},{"url":["PA_0133.png","PA_0133-octobre2018.jpg"],"name":"PA_0133","longitude":"2.3779000000","latitude":"48.8516740000","address":" 7 passage de la Main d'Or","points":30,"reportDate":2018,"city":"Paris - 11&egrave;me arrondissement","state":"OK"},{"url":["PA_0143.png","PA_0143-mars2015.jpg"],"name":"PA_0143","longitude":"2.3472332954","latitude":"48.8573740600","address":" place du Châtelet","points":30,"reportDate":2018,"city":"Paris - 1er arrondissement","state":"D&eacute;truit !"},{"url":["PA_0144.png","PA_0144-septembre2018.jpg"],"name":"PA_0144","longitude":"2.3507800000","latitude":"48.8601400000","address":" face au 49 rue Saint-Merri","points":10,"reportDate":2018,"city":"Paris - 4&egrave;me arrondissement","state":"OK"},{"url":["PA_0145.png","PA_0145-juin2018.jpg"],"name":"PA_0145","longitude":"2.3530090000","latitude":"48.8593000000","address":" 9 rue Saint-Merri","points":20,"reportDate":2018,"city":"Paris - 4&egrave;me arrondissement","state":"OK"},{"url":["PA_0146.png","PA_0146-janvier2016.jpg"],"name":"PA_0146","longitude":"2.3554380000","latitude":"48.8342340000","address":" 2 rue Véronèse","points":30,"reportDate":2018,"city":"Paris - 13&egrave;me arrondissement","state":"OK"},{"url":["PA_0147.png","PA_0147-avril2015.jpg"],"name":"PA_0147","longitude":"2.3658520000","latitude":"48.8428480000","address":" gare d'Austerlitz","points":10,"reportDate":2018,"city":"Paris - 13&egrave;me arrondissement","state":"D&eacute;truit !"},{"url":["PA_0148.png","PA_0148-juin2018.jpg"],"name":"PA_0148","longitude":"2.3506300000","latitude":"48.8559300000","address":" sur le pont d'Arcole","points":30,"reportDate":2018,"city":"Paris - 4&egrave;me arrondissement","state":"OK"},{"url":["PA_0149.png","PA_0149-juin2018.jpg"],"name":"PA_0149","longitude":"2.3629110000","latitude":"48.8547170000","address":" 1 rue de Turenne","points":10,"reportDate":2019,"city":"Paris - 4&egrave;me arrondissement","state":"OK"},{"url":["PA_0150.png","PA_0150-juin2018.jpg"],"name":"PA_0150","longitude":"2.3435800000","latitude":"48.8474500000","address":" angle de la Sorbonne","points":10,"reportDate":2018,"city":"Paris - 5&egrave;me arrondissement","state":"OK"},{"url":["PA_0151.png","PA_0151-janvier2016.jpg"],"name":"PA_0151","longitude":"2.3467840000","latitude":"48.8430510000","address":" 28 rue Lhomond","points":10,"reportDate":2019,"city":"Paris - 5&egrave;me arrondissement","state":"OK"},{"url":["PA_0152.png","PA_0152-mai2019.jpg"],"name":"PA_0152","longitude":"2.3233374900","latitude":"48.8661898300","address":" place de la Concorde","points":10,"reportDate":2019,"city":"Paris - 1er arrondissement","state":"OK"},{"url":["PA_0154.png","PA_0154-septembre2016.jpg"],"name":"PA_0154","longitude":"2.4009530000","latitude":"48.8417340000","address":" métro de Bel-Air","points":50,"reportDate":2019,"city":"Paris - 12&egrave;me arrondissement","state":"D&eacute;truit !"},{"url":["PA_0155.png","PA_0155-avril2015.jpg"],"name":"PA_0155","longitude":"2.3482570000","latitude":"48.8513750000","address":" 16 rue des Trois Portes","points":10,"reportDate":2015,"city":"Paris - 5&egrave;me arrondissement","state":"D&eacute;grad&eacute;"},{"url":["PA_0156.png","PA_0156-juin2016.jpg"],"name":"PA_0156","longitude":"2.3542990000","latitude":"48.8599100000","address":" 2 rue Simon le Franc","points":20,"reportDate":2016,"city":"Paris - 4&egrave;me arrondissement","state":"OK"},{"url":["PA_0157.png","PA_0157-juillet2015.jpg"],"name":"PA_0157","longitude":"2.3489760000","latitude":"48.8462420000","address":" 10 rue Clovis","points":10,"reportDate":2018,"city":"Paris - 5&egrave;me arrondissement","state":"OK"},{"url":["PA_0158.png","PA_0158-juin2017.jpg"],"name":"PA_0158","longitude":"2.3637220000","latitude":"48.8607000000","address":" 7 rue Debelleyme.","points":20,"reportDate":2017,"city":"Paris - 3&egrave;me arrondissement","state":"OK"},{"url":["PA_0159.png","PA_0159-juin2018.jpg"],"name":"PA_0159","longitude":"2.3510350000","latitude":"48.8760250000","address":" 69 rue d'Hauteville","points":20,"reportDate":2018,"city":"Paris - 10&egrave;me arrondissement","state":"OK"},{"url":["PA_0160.png","PA_0160-juillet2016.jpg"],"name":"PA_0160","longitude":"2.3406770000","latitude":"48.8853740000","address":" 16 rue André Barsacq","points":10,"reportDate":2019,"city":"Paris - 18&egrave;me arrondissement","state":"D&eacute;grad&eacute;"},{"url":["PA_0161.png","PA_0161-juillet2016.jpg"],"name":"PA_0161","longitude":"2.3396650000","latitude":"48.8841630000","address":" 17 rue Yvonne Le Tac","points":20,"reportDate":2018,"city":"Paris - 18&egrave;me arrondissement","state":"OK"},{"url":["PA_0162.png","PA_0162-juillet2016.jpg"],"name":"PA_0162","longitude":"2.3705590000","latitude":"48.8846170000","address":" 8 quai de la Seine","points":30,"reportDate":2019,"city":"Paris - 19&egrave;me arrondissement","state":"D&eacute;truit !"},{"url":["PA_0163.png","PA_0163-juin2018.jpg"],"name":"PA_0163","longitude":"2.3435500000","latitude":"48.8469100000","address":" 133 rue Saint-Jacques","points":20,"reportDate":2019,"city":"Paris - 5&egrave;me arrondissement","state":"OK"},{"url":["PA_0165.png","PA_0165-decembre2018.jpg"],"name":"PA_0165","longitude":"2.3405670000","latitude":"48.8876470000","address":" 5 rue Cortot","points":20,"reportDate":2018,"city":"Paris - 18&egrave;me arrondissement","state":"OK"},{"url":["PA_0166.png","PA_0166-juillet2015.jpg"],"name":"PA_0166","longitude":"2.3853099346","latitude":"48.8852982720","address":" face au 21 rue Georges Auric","points":50,"reportDate":2015,"city":"Paris - 19&egrave;me arrondissement","state":"OK"},{"url":["PA_0167.png","PA_0167-septembre2018.jpg"],"name":"PA_0167","longitude":"2.3366740000","latitude":"48.8655230000","address":" 37 rue Richelieu","points":10,"reportDate":2018,"city":"Paris - 1er arrondissement","state":"OK"},{"url":["PA_0169.png","PA_0169-juillet2016.jpg"],"name":"PA_0169","longitude":"2.3414690000","latitude":"48.8863550000","address":" 2 rue du Mont Cenis","points":20,"reportDate":2019,"city":"Paris - 18&egrave;me arrondissement","state":"D&eacute;grad&eacute;"},{"url":["PA_0172.png","PA_0172-juin2018.jpg"],"name":"PA_0172","longitude":"2.3318000000","latitude":"48.8911900000","address":" 21 rue Carpeaux","points":20,"reportDate":2018,"city":"Paris - 18&egrave;me arrondissement","state":"OK"},{"url":["PA_0175.png","PA_0175-janvier2016.jpg"],"name":"PA_0175","longitude":"2.3735520000","latitude":"48.8515990000","address":" 18 passage du Chantier","points":20,"reportDate":2019,"city":"Paris - 12&egrave;me arrondissement","state":"D&eacute;truit !"},{"url":["PA_0176.png","PA_0176-octobre2018.jpg"],"name":"PA_0176","longitude":"2.3307700000","latitude":"48.8499610000","address":" 12 rue Cassette","points":20,"reportDate":2018,"city":"Paris - 6&egrave;me arrondissement","state":"OK"},{"url":["PA_0177.png","PA_0177-mars2015.jpg"],"name":"PA_0177","longitude":"2.3308101296","latitude":"48.8653729010","address":" 12 rue du 29 Juillet","points":20,"reportDate":2018,"city":"Paris - 1er arrondissement","state":"D&eacute;truit !"},{"url":["PA_0178.png","PA_0178-juillet2016.jpg"],"name":"PA_0178","longitude":"2.3059260000","latitude":"48.8747020000","address":" 165 rue du Faubourg Saint-Honoré","points":30,"reportDate":2016,"city":"Paris - 8&egrave;me arrondissement","state":"OK"},{"url":["PA_0179.png","PA_0179-juillet2015.jpg"],"name":"PA_0179","longitude":"2.5072100000","latitude":"48.8272500000","address":" entrée du tunnel de Champigny","points":10,"reportDate":2019,"city":"Paris - banlieue 94","state":"OK"},{"url":["PA_0180.png","PA_0180-juin2016.jpg"],"name":"PA_0180","longitude":"2.3319250000","latitude":"48.8510630000","address":" 14 rue Madame","points":20,"reportDate":2018,"city":"Paris - 6&egrave;me arrondissement","state":"D&eacute;truit !"},{"url":["PA_0181.png","PA_0181-octobre2018.jpg"],"name":"PA_0181","longitude":"2.3317680000","latitude":"48.8506450000","address":" 20-24 rue Madame","points":10,"reportDate":2018,"city":"Paris - 6&egrave;me arrondissement","state":"D&eacute;grad&eacute;"},{"url":["PA_0182.png","PA_0182-juin2016.jpg"],"name":"PA_0182","longitude":"2.3319180000","latitude":"48.8509620000","address":" 18 rue Madame","points":20,"reportDate":2019,"city":"Paris - 6&egrave;me arrondissement","state":"OK"},{"url":["PA_0183.png","PA_0183-mars2015.jpg"],"name":"PA_0183","longitude":"2.3318850000","latitude":"48.8503500000","address":" 19 rue de Mézières","points":10,"reportDate":2016,"city":"Paris - 6&egrave;me arrondissement","state":"Un peu d&eacute;grad&eacute;"},{"url":["PA_0184.png","PA_0184-mars2015.jpg"],"name":"PA_0184","longitude":"2.3417370000","latitude":"48.8523260000","address":" 2 rue Mignon","points":10,"reportDate":2019,"city":"Paris - 6&egrave;me arrondissement","state":"OK"},{"url":["PA_0185.png","PA_0185-septembre2018.jpg"],"name":"PA_0185","longitude":"2.3311700000","latitude":"48.8726420000","address":" 8 rue Scribe","points":10,"reportDate":2019,"city":"Paris - 9&egrave;me arrondissement","state":"OK"},{"url":["PA_0187.png","PA_0187-avril2019.jpg"],"name":"PA_0187","longitude":"2.3547110000","latitude":"48.8463660000","address":" fontaine Jussieu","points":10,"reportDate":2019,"city":"Paris - 5&egrave;me arrondissement","state":"OK"},{"url":["PA_0188.png","PA_0188-avril2015.jpg"],"name":"PA_0188","longitude":"2.3601800000","latitude":"48.8578800000","address":" 39 rue des Francs-Bourgeois","points":30,"reportDate":2019,"city":"Paris - 4&egrave;me arrondissement","state":"D&eacute;grad&eacute;"},{"url":["PA_0189.png","PA_0189-janvier2019.jpg"],"name":"PA_0189","longitude":"2.3545320000","latitude":"48.8605150000","address":" 3 rue Geoffroy Langevin","points":50,"reportDate":2019,"city":"Paris - 4&egrave;me arrondissement","state":"OK"},{"url":["PA_0190.png","PA_0190-septembre2017.jpg"],"name":"PA_0190","longitude":"2.4037040000","latitude":"48.8602080000","address":" 1 rue Stendhal","points":10,"reportDate":2017,"city":"Paris - 20&egrave;me arrondissement","state":"OK"},{"url":["PA_0191.png","PA_0191-avril2015.jpg"],"name":"PA_0191","longitude":"2.4029050000","latitude":"48.8606800000","address":" 21 chemin du Parc de Charonne","points":10,"reportDate":2015,"city":"Paris - 20&egrave;me arrondissement","state":"D&eacute;grad&eacute;"},{"url":["PA_0192.png","PA_0192-decembre2018.jpg"],"name":"PA_0192","longitude":"2.4049650000","latitude":"48.8609740000","address":" face au 130 rue de Bagnolet","points":10,"reportDate":2018,"city":"Paris - 20&egrave;me arrondissement","state":"OK"},{"url":["PA_0193.png","PA_0193-mars2017.jpg"],"name":"PA_0193","longitude":"2.3564720000","latitude":"48.8652940000","address":" 29 rue de Réaumur","points":20,"reportDate":2018,"city":"Paris - 3&egrave;me arrondissement","state":"OK"},{"url":["PA_0194.png","PA_0194-janvier2016.jpg"],"name":"PA_0194","longitude":"2.3774480000","latitude":"48.8599930000","address":" 61 rue du Chemin Vert","points":10,"reportDate":2019,"city":"Paris - 11&egrave;me arrondissement","state":"OK"},{"url":["PA_0195.png","PA_0195-janvier2016.jpg"],"name":"PA_0195","longitude":"2.3448190000","latitude":"48.9008210000","address":" avenue de la porte Clignancourt","points":20,"reportDate":2019,"city":"Paris - 18&egrave;me arrondissement","state":"D&eacute;truit !"},{"url":["PA_0196.png","PA_0196-septembre2018.jpg"],"name":"PA_0196","longitude":"2.3688950000","latitude":"48.8837030000","address":" place de la Bataille de Stalingrad","points":30,"reportDate":2019,"city":"Paris - 10&egrave;me arrondissement","state":"OK"},{"url":["PA_0197.png","PA_0197-mars2015.jpg"],"name":"PA_0197","longitude":"2.3323800000","latitude":"48.8865590000","address":" cimetière de Montmartre","points":30,"reportDate":2019,"city":"Paris - 18&egrave;me arrondissement","state":"D&eacute;truit !"},{"url":["PA_0198.png","PA_0198-juin2018.jpg"],"name":"PA_0198","longitude":"2.3726110000","latitude":"48.8743050000","address":" 27 rue Sainte-Marthe","points":20,"reportDate":2018,"city":"Paris - 10&egrave;me arrondissement","state":"OK"},{"url":["PA_0200.png","PA_0200-octobre2018.jpg"],"name":"PA_0200","longitude":"2.3723800000","latitude":"48.8445060000","address":" face au 194 rue de Bercy","points":10,"reportDate":2019,"city":"Paris - 12&egrave;me arrondissement","state":"D&eacute;grad&eacute;"},{"url":["PA_0201.png","PA_0201-septembre2016.jpg"],"name":"PA_0201","longitude":"2.3768200000","latitude":"48.8780100000","address":" 19 rue Georges Lardennois","points":30,"reportDate":2019,"city":"Paris - 19&egrave;me arrondissement","state":"Tr&egrave;s d&eacute;grad&eacute;"},{"url":["PA_0205.png","PA_0205-juillet2015.jpg"],"name":"PA_0205","longitude":"2.3516800000","latitude":"48.8780730000","address":" parvis de Saint-Vincent-de-Paul","points":20,"reportDate":2019,"city":"Paris - 10&egrave;me arrondissement","state":"D&eacute;truit !"},{"url":["PA_0206.png","PA_0206-mars2017.jpg"],"name":"PA_0206","longitude":"2.3274280000","latitude":"48.8835080000","address":" place de Clichy","points":20,"reportDate":2019,"city":"Paris - 18&egrave;me arrondissement","state":"OK"},{"url":["PA_0207.png","PA_0207-juillet2015.jpg"],"name":"PA_0207","longitude":"2.3325763642","latitude":"48.8877207050","address":" 7 rue Damrémont","points":20,"reportDate":2019,"city":"Paris - 18&egrave;me arrondissement","state":"OK"},{"url":["PA_0208.png","PA_0208-octobre2018.jpg"],"name":"PA_0208","longitude":"2.3314910000","latitude":"48.8374280000","address":" métro Raspail","points":10,"reportDate":2018,"city":"Paris - 14&egrave;me arrondissement","state":"OK"},{"url":["PA_0209.png","PA_0209-avril2015.jpg"],"name":"PA_0209","longitude":"2.3793870000","latitude":"48.8333510000","address":" sur la coque du Batofar","points":30,"reportDate":2019,"city":"Paris - 13&egrave;me arrondissement","state":"D&eacute;grad&eacute;"},{"url":["PA_0211.png","PA_0211-juin2018.jpg"],"name":"PA_0211","longitude":"2.3716070000","latitude":"48.8524410000","address":" 30 rue du Faubourg Saint-Antoine","points":30,"reportDate":2018,"city":"Paris - 12&egrave;me arrondissement","state":"OK"},{"url":["PA_0212.png","PA_0212-septembre2017.jpg"],"name":"PA_0212","longitude":"2.3930500000","latitude":"48.8570500000","address":" 123 boulevard de Charonne","points":20,"reportDate":2018,"city":"Paris - 11&egrave;me arrondissement","state":"OK"},{"url":["PA_0213.png","PA_0213-decembre2018.jpg"],"name":"PA_0213","longitude":"2.3496830000","latitude":"48.8420990000","address":" 84 rue Mouffetard","points":50,"reportDate":2018,"city":"Paris - 5&egrave;me arrondissement","state":"OK"},{"url":["PA_0215.png","PA_0215-septembre2017.jpg"],"name":"PA_0215","longitude":"2.3861570000","latitude":"48.8425920000","address":" 0 rue Montgallet","points":10,"reportDate":2017,"city":"Paris - 12&egrave;me arrondissement","state":"OK"},{"url":["PA_0216.png","PA_0216-avril2015.jpg"],"name":"PA_0216","longitude":"2.3424670100","latitude":"48.8215718400","address":" 67 rue de l'Amiral Mouchez","points":30,"reportDate":2015,"city":"Paris - 13&egrave;me arrondissement","state":"OK"},{"url":["PA_0218.png","PA_0218-octobre2018.jpg"],"name":"PA_0218","longitude":"2.3720400000","latitude":"48.8442300000","address":" Tunnel Van-Gogh","points":20,"reportDate":2018,"city":"Paris - 12&egrave;me arrondissement","state":"OK"},{"url":["PA_0219.png","PA_0219-decembre2017.jpg"],"name":"PA_0219","longitude":"2.3736700000","latitude":"48.8195700000","address":" face au 8 rue André Voguet","points":10,"reportDate":2019,"city":"Paris - 13&egrave;me arrondissement","state":"OK"},{"url":["PA_0220.png","PA_0220-avril2015.jpg"],"name":"PA_0220","longitude":"2.3735230000","latitude":"48.8373960000","address":" métro Quai de la Gare","points":30,"reportDate":2018,"city":"Paris - 13&egrave;me arrondissement","state":"OK"},{"url":["PA_0221.png","PA_0221-avril2015.jpg"],"name":"PA_0221","longitude":"2.3829380000","latitude":"48.8737960000","address":" 91 rue Rebeval","points":10,"reportDate":2015,"city":"Paris - 19&egrave;me arrondissement","state":"OK"},{"url":["PA_0222.png","PA_0222-juin2016.jpg"],"name":"PA_0222","longitude":"2.3744270000","latitude":"48.8711090000","address":" 94 rue du Faubourg du Temple","points":20,"reportDate":2016,"city":"Paris - 11&egrave;me arrondissement","state":"OK"},{"url":["PA_0223.png","PA_0223-avril2015.jpg"],"name":"PA_0223","longitude":"2.3760690000","latitude":"48.8482170000","address":" 20 rue Abel","points":20,"reportDate":2017,"city":"Paris - 12&egrave;me arrondissement","state":"OK"},{"url":["PA_0224.png","PA_0224-septembre2018.jpg"],"name":"PA_0224","longitude":"2.3736070000","latitude":"48.8198740000","address":" sur les panneaux d'information du périph'","points":10,"reportDate":2019,"city":"Paris - 13&egrave;me arrondissement","state":"OK"},{"url":["PA_0225.png","PA_0225-juillet2015.jpg"],"name":"PA_0225","longitude":"2.3730150000","latitude":"48.8194530000","address":" sur le pont du periph' porte d'Ivry","points":10,"reportDate":2019,"city":"Paris - 13&egrave;me arrondissement","state":"OK"},{"url":["PA_0226.png","PA_0226-avril2015.jpg"],"name":"PA_0226","longitude":"2.3511734604","latitude":"48.8767487110","address":" 83 rue d'Hauteville","points":20,"reportDate":2018,"city":"Paris - 10&egrave;me arrondissement","state":"OK"},{"url":["PA_0227.png","PA_0227-avril2019.jpg"],"name":"PA_0227","longitude":"2.3530330000","latitude":"48.8741500000","address":" PA_0227","points":10,"reportDate":2019,"city":"Paris - 10&egrave;me arrondissement","state":"OK"},{"url":["PA_0228.png","PA_0228-juillet2016.jpg"],"name":"PA_0228","longitude":"2.3829500000","latitude":"48.8899100000","address":" pont de la rue de l'Ourcq","points":30,"reportDate":2019,"city":"Paris - 19&egrave;me arrondissement","state":"Tr&egrave;s d&eacute;grad&eacute;"},{"url":["PA_0229.png","PA_0229-mars2015.jpg"],"name":"PA_0229","longitude":"2.3396810000","latitude":"48.8510270000","address":" rue Antoine Dubois","points":10,"reportDate":2018,"city":"Paris - 6&egrave;me arrondissement","state":"OK"},{"url":["PA_0231.png","PA_0231-juin2016.jpg"],"name":"PA_0231","longitude":"2.3499050000","latitude":"48.8643220000","address":" 1 rue Tiquetonne","points":20,"reportDate":2016,"city":"Paris - 2&egrave;me arrondissement","state":"OK"},{"url":["PA_0232.png","PA_0232-juin2018.jpg"],"name":"PA_0232","longitude":"2.3476720000","latitude":"48.8645430000","address":" 11 rue Française","points":20,"reportDate":2018,"city":"Paris - 2&egrave;me arrondissement","state":"OK"},{"url":["PA_0233.png","PA_0233-avril2015.jpg"],"name":"PA_0233","longitude":"2.2763310000","latitude":"48.8444560000","address":" 1 rue des Cévennes","points":10,"reportDate":2015,"city":"Paris - 15&egrave;me arrondissement","state":"Un peu d&eacute;grad&eacute;"},{"url":["PA_0236.png","PA_0236-juin2018.jpg"],"name":"PA_0236","longitude":"2.2996400000","latitude":"48.8709500000","address":" 16 rue Magellan","points":20,"reportDate":2018,"city":"Paris - 8&egrave;me arrondissement","state":"OK"},{"url":["PA_0237.png"],"name":"PA_0237","longitude":"2.2970740000","latitude":"48.8734330000","address":" 156 avenue des Champs Élysées","points":20,"reportDate":2019,"city":"Paris - 8&egrave;me arrondissement","state":"Un peu d&eacute;grad&eacute;"},{"url":["PA_0238.png","PA_0238-juin2018.jpg"],"name":"PA_0238","longitude":"2.3075210000","latitude":"48.8660540000","address":" 8 rue François 1er","points":10,"reportDate":2018,"city":"Paris - 8&egrave;me arrondissement","state":"OK"},{"url":["PA_0240.png","PA_0240-octobre2018.jpg"],"name":"PA_0240","longitude":"2.3738680000","latitude":"48.8457410000","address":" face au 23 boulevard Diderot","points":20,"reportDate":2018,"city":"Paris - 12&egrave;me arrondissement","state":"OK"},{"url":["PA_0241.png","PA_0241-octobre2018.jpg"],"name":"PA_0241","longitude":"2.4008850000","latitude":"48.8410060000","address":" métro Bel-Air face sud","points":20,"reportDate":2019,"city":"Paris - 12&egrave;me arrondissement","state":"D&eacute;truit !"},{"url":["PA_0242.png"],"name":"PA_0242","longitude":"2.4069320000","latitude":"48.8444870000","address":" 94-100 avenue Saint-Mandé","points":20,"reportDate":2019,"city":"Paris - 12&egrave;me arrondissement","state":"OK"},{"url":["PA_0243.png","PA_0243-juin2016.jpg"],"name":"PA_0243","longitude":"2.3751170000","latitude":"48.8468190000","address":" 8bis rue Abel","points":20,"reportDate":2016,"city":"Paris - 12&egrave;me arrondissement","state":"OK"},{"url":["PA_0245.png","PA_0245-avril2015.jpg"],"name":"PA_0245","longitude":"2.3719760000","latitude":"48.8646020000","address":" 47 rue Oberkampf","points":10,"reportDate":2015,"city":"Paris - 11&egrave;me arrondissement","state":"OK"},{"url":["PA_0247.png","PA_0247-mars2017.jpg"],"name":"PA_0247","longitude":"2.2895330000","latitude":"48.8333490000","address":" 1 rue Firmin Gillot","points":20,"reportDate":2017,"city":"Paris - 15&egrave;me arrondissement","state":"OK"},{"url":["PA_0248.png","PA_0248-decembre2018.jpg"],"name":"PA_0248","longitude":"2.3745160000","latitude":"48.8682990000","address":" 64 rue de la Fontaine au Roi","points":10,"reportDate":2018,"city":"Paris - 11&egrave;me arrondissement","state":"Un peu d&eacute;grad&eacute;"},{"url":["PA_0250.png","PA_0250-septembre2017.jpg"],"name":"PA_0250","longitude":"2.3673552270","latitude":"48.8688610700","address":" entrée du mini-square de Jemmapes","points":10,"reportDate":2019,"city":"Paris - 10&egrave;me arrondissement","state":"OK"},{"url":["PA_0251.png","PA_0251-septembre2018.jpg"],"name":"PA_0251","longitude":"2.3480060000","latitude":"48.8606680000","address":" à l'ouest de la fontaine des Innocents","points":10,"reportDate":2018,"city":"Paris - 1er arrondissement","state":"OK"},{"url":["PA_0253.png","PA_0253-octobre2018.jpg"],"name":"PA_0253","longitude":"2.3013870000","latitude":"48.8640590000","address":" pont de l'Alma côté rive droite","points":30,"reportDate":2018,"city":"Paris - 16&egrave;me arrondissement","state":"OK"},{"url":["PA_0254.png"],"name":"PA_0254","longitude":"2.3005410000","latitude":"48.8718090000","address":" 101 avenue des Champs-Élysées","points":20,"reportDate":2015,"city":"Paris - 8&egrave;me arrondissement","state":"D&eacute;truit !"},{"url":["PA_0255.png","PA_0255-decembre2018.jpg"],"name":"PA_0255","longitude":"2.2913540000","latitude":"48.8612970000","address":" sous le banc face à l'arrêt de bus Varsovie","points":20,"reportDate":2018,"city":"Paris - 16&egrave;me arrondissement","state":"OK"},{"url":["PA_0256.png","PA_0256-juin2018.jpg"],"name":"PA_0256","longitude":"2.2918050000","latitude":"48.8608660000","address":" place de Varsovie","points":10,"reportDate":2018,"city":"Paris - 16&egrave;me arrondissement","state":"OK"},{"url":["PA_0257.png","PA_0257-octobre2018.jpg"],"name":"PA_0257","longitude":"2.2857130000","latitude":"48.8576960000","address":" métro Passy","points":10,"reportDate":2018,"city":"Paris - 16&egrave;me arrondissement","state":"OK"},{"url":["PA_0258.png","PA_0258-mai2015.jpg"],"name":"PA_0258","longitude":"2.2788080000","latitude":"48.8544830000","address":" 29 avenue de Lamballe","points":20,"reportDate":2018,"city":"Paris - 16&egrave;me arrondissement","state":"D&eacute;grad&eacute;"},{"url":["PA_0262.png","PA_0262-avril2019.jpg"],"name":"PA_0262","longitude":"2.3972850000","latitude":"48.8480060000","address":" place de la Nation (côté avenue du Trône)","points":10,"reportDate":2019,"city":"Paris - 12&egrave;me arrondissement","state":"D&eacute;truit !"},{"url":["PA_0263.png","PA_0263-octobre2018.jpg"],"name":"PA_0263","longitude":"2.2856630000","latitude":"48.8699500000","address":" sur les marches du métro Victor Hugo","points":10,"reportDate":2019,"city":"Paris - 16&egrave;me arrondissement","state":"OK"},{"url":["PA_0264.png","PA_0264-octobre2018.jpg"],"name":"PA_0264","longitude":"2.2755140000","latitude":"48.8629980000","address":" 115 rue de la Tour","points":10,"reportDate":2019,"city":"Paris - 16&egrave;me arrondissement","state":"OK"},{"url":["PA_0265.png","PA_0265-octobre2018.jpg"],"name":"PA_0265","longitude":"2.2722690000","latitude":"48.8629230000","address":" face au 27 boulevard Jules Sandeau","points":10,"reportDate":2018,"city":"Paris - 16&egrave;me arrondissement","state":"OK"},{"url":["PA_0266.png","PA_0266-mars2019.jpg"],"name":"PA_0266","longitude":"2.2956400000","latitude":"48.8646490000","address":" 11 rue de la Manutention","points":10,"reportDate":2019,"city":"Paris - 16&egrave;me arrondissement","state":"OK"},{"url":["PA_0267.png","PA_0267-janvier2019.jpg"],"name":"PA_0267","longitude":"2.2902350000","latitude":"48.8641440000","address":" 10 rue de Magdebourg","points":10,"reportDate":2019,"city":"Paris - 16&egrave;me arrondissement","state":"D&eacute;truit !"},{"url":["PA_0268.png","PA_0268-decembre2017.jpg"],"name":"PA_0268","longitude":"2.3036070000","latitude":"48.8790020000","address":" 96 rue de Courcelles","points":20,"reportDate":2017,"city":"Paris - 8&egrave;me arrondissement","state":"OK"},{"url":["PA_0269.png","PA_0269-juillet2015.jpg"],"name":"PA_0269","longitude":"2.4554900000","latitude":"48.8181660000","address":" sur le Chasseur à pied de la Redoute de Gravelle","points":30,"reportDate":2015,"city":"Paris - 12&egrave;me arrondissement","state":"OK"},{"url":["PA_0270.png","PA_0270-decembre2017.jpg"],"name":"PA_0270","longitude":"2.3652400000","latitude":"48.8681800000","address":" 2 rue Yves Toudic","points":10,"reportDate":2019,"city":"Paris - 10&egrave;me arrondissement","state":"OK"},{"url":["PA_0271.png","PA_0271-juin2016.jpg"],"name":"PA_0271","longitude":"2.3774770000","latitude":"48.8691350000","address":" 7 rue Vancouleurs","points":10,"reportDate":2019,"city":"Paris - 11&egrave;me arrondissement","state":"OK"},{"url":["PA_0272.png","PA_0272-septembre2018.jpg"],"name":"PA_0272","longitude":"2.3641640000","latitude":"48.8268000000","address":" 96 rue de Tolbiac","points":20,"reportDate":2018,"city":"Paris - 13&egrave;me arrondissement","state":"OK"},{"url":["PA_0273.png","PA_0273-juin2016.jpg"],"name":"PA_0273","longitude":"2.3502150000","latitude":"48.8603740000","address":" 21 rue Aubry le Boucher","points":20,"reportDate":2019,"city":"Paris - 4&egrave;me arrondissement","state":"OK"},{"url":["PA_0275.png","PA_0275-septembre2018.jpg"],"name":"PA_0275","longitude":"2.3652260000","latitude":"48.8794290000","address":" 14 rue Pierre Dupont","points":20,"reportDate":2018,"city":"Paris - 10&egrave;me arrondissement","state":"OK"},{"url":["PA_0277.png","PA_0277-avril2019.jpg"],"name":"PA_0277","longitude":"2.3758256435","latitude":"48.8533362160","address":" 31 rue de Charonne","points":50,"reportDate":2019,"city":"Paris - 11&egrave;me arrondissement","state":"OK"},{"url":["PA_0278.png","PA_0278-mars2017.jpg"],"name":"PA_0278","longitude":"2.4065600000","latitude":"48.8528700000","address":" 53 rue des Maraîchers","points":20,"reportDate":2018,"city":"Paris - 20&egrave;me arrondissement","state":"OK"},{"url":["PA_0279.png","PA_0279-fevrier2018.jpg"],"name":"PA_0279","longitude":"2.3761500000","latitude":"48.8716300000","address":" 116 rue du Faubourg du Temple","points":10,"reportDate":2018,"city":"Paris - 11&egrave;me arrondissement","state":"OK"},{"url":["PA_0280.png","PA_0280-juin2016.jpg"],"name":"PA_0280","longitude":"2.3859760000","latitude":"48.8638720000","address":" 8 rue Spinoza","points":10,"reportDate":2019,"city":"Paris - 11&egrave;me arrondissement","state":"OK"},{"url":["PA_0282.png","PA_0282-janvier2019.jpg"],"name":"PA_0282","longitude":"2.3526730000","latitude":"48.8580560000","address":" 61 rue de la Verrerie","points":20,"reportDate":2019,"city":"Paris - 4&egrave;me arrondissement","state":"OK"},{"url":["PA_0283.png","PA_0283-avril2015.jpg"],"name":"PA_0283","longitude":"2.3735500000","latitude":"48.8708400000","address":" 101 rue du Faubourg du Temple","points":10,"reportDate":2019,"city":"Paris - 10&egrave;me arrondissement","state":"D&eacute;grad&eacute;"},{"url":["PA_0285.png","PA_0285-septembre2018.jpg"],"name":"PA_0285","longitude":"2.3460700000","latitude":"48.8660300000","address":" passage Ben Aiad","points":10,"reportDate":2019,"city":"Paris - 2&egrave;me arrondissement","state":"OK"},{"url":["PA_0286.png","PA_0286-septembre2016.jpg"],"name":"PA_0286","longitude":"2.3444450000","latitude":"48.8875080000","address":" 28 rue du Chevalier de la Barre","points":10,"reportDate":2019,"city":"Paris - 18&egrave;me arrondissement","state":"OK"},{"url":["PA_0290.png"],"name":"PA_0290","longitude":"2.3781497776","latitude":"48.8658889970","address":" 113 rue Oberkampf","points":10,"reportDate":2019,"city":"Paris - 11&egrave;me arrondissement","state":"OK"},{"url":["PA_0291.png","PA_0291-septembre2017.jpg"],"name":"PA_0291","longitude":"2.3901218175","latitude":"48.8678677500","address":" 15 rue des Plâtrières","points":20,"reportDate":2017,"city":"Paris - 20&egrave;me arrondissement","state":"OK"},{"url":["PA_0293.png","PA_0293-decembre2018.jpg"],"name":"PA_0293","longitude":"2.3733500000","latitude":"48.8706640000","address":" 84 rue du Faubourg du Temple","points":10,"reportDate":2018,"city":"Paris - 11&egrave;me arrondissement","state":"Un peu d&eacute;grad&eacute;"},{"url":["PA_0294.png"],"name":"PA_0294","longitude":"2.3560700000","latitude":"48.8582100000","address":" 14 rue de Moussy","points":20,"reportDate":2019,"city":"Paris - 4&egrave;me arrondissement","state":"OK"},{"url":["PA_0295.png","PA_0295-septembre2018.jpg"],"name":"PA_0295","longitude":"2.3448219895","latitude":"48.8637875280","address":" 4 rue du Jour","points":50,"reportDate":2018,"city":"Paris - 1er arrondissement","state":"OK"},{"url":["PA_0301.png","PA_0301-juin2016.jpg"],"name":"PA_0301","longitude":"2.3734840000","latitude":"48.8502610000","address":" 44 rue de Charenton","points":10,"reportDate":2018,"city":"Paris - 12&egrave;me arrondissement","state":"D&eacute;truit !"},{"url":["PA_0302.png","PA_0302-juin2018.jpg"],"name":"PA_0302","longitude":"2.3898570000","latitude":"48.8790660000","address":" 37 rue de Belleville","points":10,"reportDate":2018,"city":"Paris - 19&egrave;me arrondissement","state":"OK"},{"url":["PA_0303.png","PA_0303-juin2018.jpg"],"name":"PA_0303","longitude":"2.3507500000","latitude":"48.8268200000","address":" 24 passage Boiton","points":10,"reportDate":2018,"city":"Paris - 13&egrave;me arrondissement","state":"OK"},{"url":["PA_0305.png","PA_0305-septembre2018.jpg"],"name":"PA_0305","longitude":"2.3555100000","latitude":"48.8427100000","address":" face au 49 rue Geoffroy-Saint-Hilaire","points":20,"reportDate":2018,"city":"Paris - 5&egrave;me arrondissement","state":"OK"},{"url":["PA_0307.png","PA_0307-juin2016.jpg"],"name":"PA_0307","longitude":"2.3893940000","latitude":"48.8686850000","address":" 77 rue de Ménilmontant","points":30,"reportDate":2016,"city":"Paris - 20&egrave;me arrondissement","state":"OK"},{"url":["PA_0308.png","PA_0308-juillet2015.jpg"],"name":"PA_0308","longitude":"2.2252990000","latitude":"48.8414430000","address":" 2 quai du 4 septembre","points":10,"reportDate":2018,"city":"Paris - banlieue 92","state":"OK"},{"url":["PA_0309.png","PA_0309-juillet2015.jpg"],"name":"PA_0309","longitude":"2.2827370000","latitude":"48.8769040000","address":" 1 boulevard de l'Amiral Bruix","points":20,"reportDate":2018,"city":"Paris - 16&egrave;me arrondissement","state":"OK"},{"url":["PA_0310.png","PA_0310-juillet2016.jpg"],"name":"PA_0310","longitude":"2.2553280000","latitude":"48.8374800000","address":" passerelle de la Porte de Saint-Cloud","points":20,"reportDate":2019,"city":"Paris - 16&egrave;me arrondissement","state":"OK"},{"url":["PA_0311.png","PA_0311-juillet2015.jpg"],"name":"PA_0311","longitude":"2.3302930000","latitude":"48.8435790000","address":" face au 5 rue Bréa","points":20,"reportDate":2018,"city":"Paris - 6&egrave;me arrondissement","state":"D&eacute;truit !"},{"url":["PA_0312.png","PA_0312-juin2016.jpg"],"name":"PA_0312","longitude":"2.3270610000","latitude":"48.8283660000","address":" parvis de Saint-Pierre de Montrouge","points":10,"reportDate":2019,"city":"Paris - 14&egrave;me arrondissement","state":"OK"},{"url":["PA_0315.png","PA_0315-juin2016.jpg"],"name":"PA_0315","longitude":"2.3511540000","latitude":"48.8300740000","address":" face au 32 boulevard Auguste Blanqui","points":10,"reportDate":2016,"city":"Paris - 13&egrave;me arrondissement","state":"OK"},{"url":["PA_0316.png","PA_0316-mars2017.jpg"],"name":"PA_0316","longitude":"2.3347410000","latitude":"48.8273720000","address":" rue des Artistes","points":10,"reportDate":2019,"city":"Paris - 14&egrave;me arrondissement","state":"OK"},{"url":["PA_0317.png","PA_0317-septembre2017.jpg"],"name":"PA_0317","longitude":"2.3316800000","latitude":"48.8366700000","address":" devant la Fondation Cartier","points":20,"reportDate":2019,"city":"Paris - 14&egrave;me arrondissement","state":"D&eacute;grad&eacute;"},{"url":["PA_0320.png","PA_0320-octobre2018.jpg"],"name":"PA_0320","longitude":"2.3381290000","latitude":"48.8366220000","address":" 34 rue du Faubourg Saint-Jacques","points":50,"reportDate":2018,"city":"Paris - 14&egrave;me arrondissement","state":"OK"},{"url":["PA_0321.png","PA_0321-decembre2018.jpg"],"name":"PA_0321","longitude":"2.3420150000","latitude":"48.8465370000","address":" 17 rue Malebranche","points":10,"reportDate":2019,"city":"Paris - 5&egrave;me arrondissement","state":"OK"},{"url":["PA_0322.png","PA_0322-octobre2018.jpg"],"name":"PA_0322","longitude":"2.3328830000","latitude":"48.8488610000","address":" 77 allée du Séminaire","points":10,"reportDate":2019,"city":"Paris - 6&egrave;me arrondissement","state":"OK"},{"url":["PA_0323.png","PA_0323-juin2016.jpg"],"name":"PA_0323","longitude":"2.3841580000","latitude":"48.8543700000","address":" 102 rue de Charonne","points":20,"reportDate":2018,"city":"Paris - 11&egrave;me arrondissement","state":"OK"},{"url":["PA_0325.png","PA_0325-janvier2016.jpg"],"name":"PA_0325","longitude":"2.3939700000","latitude":"48.8649600000","address":" 17 rue Robineau","points":10,"reportDate":2018,"city":"Paris - 20&egrave;me arrondissement","state":"Un peu d&eacute;grad&eacute;"},{"url":["PA_0327.png","PA_0327-septembre2018.jpg"],"name":"PA_0327","longitude":"2.3478100000","latitude":"48.8730100000","address":" 29 rue du Faubourg Poissonnière","points":10,"reportDate":2018,"city":"Paris - 9&egrave;me arrondissement","state":"OK"},{"url":["PA_0328.png","PA_0328-septembre2018.jpg"],"name":"PA_0328","longitude":"2.3442340000","latitude":"48.8651130000","address":" 40 rue Étienne Marcel","points":20,"reportDate":2019,"city":"Paris - 2&egrave;me arrondissement","state":"Un peu d&eacute;grad&eacute;"},{"url":["PA_0329.png","PA_0329-septembre2017.jpg"],"name":"PA_0329","longitude":"2.3611600000","latitude":"48.8865200000","address":" 14 rue Pajol","points":20,"reportDate":2017,"city":"Paris - 18&egrave;me arrondissement","state":"OK"},{"url":["PA_0330.png","PA_0330-septembre2018.jpg"],"name":"PA_0330","longitude":"2.3492660000","latitude":"48.8784070000","address":" 102 rue du Faubourg Poissonnière","points":10,"reportDate":2018,"city":"Paris - 10&egrave;me arrondissement","state":"OK"},{"url":["PA_0331.png","PA_0331-mars2017.jpg"],"name":"PA_0331","longitude":"2.3530030000","latitude":"48.8593890000","address":" 2 rue Pierre au Lard","points":10,"reportDate":2018,"city":"Paris - 4&egrave;me arrondissement","state":"OK"},{"url":["PA_0332.png","PA_0332-juin2016.jpg"],"name":"PA_0332","longitude":"2.3893500000","latitude":"48.8596260000","address":" 41 rue du Repos sous la plaque du cimètière","points":20,"reportDate":2018,"city":"Paris - 20&egrave;me arrondissement","state":"OK"},{"url":["PA_0334.png","PA_0334-avril2015.jpg"],"name":"PA_0334","longitude":"2.3639756441","latitude":"48.8439798010","address":" 7-13 Place Valhubert","points":20,"reportDate":2019,"city":"Paris - 5&egrave;me arrondissement","state":"OK"},{"url":["PA_0335.png","PA_0335-septembre2018.jpg"],"name":"PA_0335","longitude":"2.3699490000","latitude":"48.8821240000","address":" 135 boulevard de la Villette","points":10,"reportDate":2019,"city":"Paris - 10&egrave;me arrondissement","state":"Tr&egrave;s d&eacute;grad&eacute;"},{"url":["PA_0336.png","PA_0336-decembre2017.jpg"],"name":"PA_0336","longitude":"2.3532390000","latitude":"48.8904390000","address":" centre d'Hygiène Sociale","points":10,"reportDate":2018,"city":"Paris - 18&egrave;me arrondissement","state":"OK"},{"url":["PA_0339.png","PA_0339-decembre2018.jpg"],"name":"PA_0339","longitude":"2.3947500000","latitude":"48.8654100000","address":" square du Docteur-Grancher","points":10,"reportDate":2018,"city":"Paris - 20&egrave;me arrondissement","state":"OK"},{"url":["PA_0340.png","PA_0340-juin2018.jpg"],"name":"PA_0340","longitude":"2.3536300000","latitude":"48.8535600000","address":" 45 quai de Bourbon","points":50,"reportDate":2019,"city":"Paris - 4&egrave;me arrondissement","state":"OK"},{"url":["PA_0342.png","PA_0342-juillet2016.jpg"],"name":"PA_0342","longitude":"2.3369280000","latitude":"48.8790750000","address":" 19 rue Laferrière","points":30,"reportDate":2019,"city":"Paris - 9&egrave;me arrondissement","state":"OK"},{"url":["PA_0343.png","PA_0343-mars2019.jpg"],"name":"PA_0343","longitude":"2.2911050000","latitude":"48.8601730000","address":" pont d'Iéna (rive droite)","points":10,"reportDate":2019,"city":"Paris - 16&egrave;me arrondissement","state":"OK"},{"url":["PA_0345.png","PA_0345-septembre2016.jpg"],"name":"PA_0345","longitude":"2.3216600000","latitude":"48.8489200000","address":" 95 rue de Sèvres","points":20,"reportDate":2019,"city":"Paris - 6&egrave;me arrondissement","state":"OK"},{"url":["PA_0346.png","PA_0346-mai2018.jpg"],"name":"PA_0346","longitude":"2.3122450000","latitude":"48.8429050000","address":" 16 boulevard Pasteur","points":20,"reportDate":2019,"city":"Paris - 15&egrave;me arrondissement","state":"OK"},{"url":["PA_0347.png","PA_0347-juin2016.jpg"],"name":"PA_0347","longitude":"2.3254740000","latitude":"48.8431630000","address":" passage des Épinettes","points":30,"reportDate":2016,"city":"Paris - 14&egrave;me arrondissement","state":"OK"},{"url":["PA_0348.png","PA_0348-avril2015.jpg"],"name":"PA_0348","longitude":"2.3562540000","latitude":"48.8840370000","address":" 39bis boulevard de la Chapelle","points":30,"reportDate":2016,"city":"Paris - 10&egrave;me arrondissement","state":"D&eacute;truit !"},{"url":["PA_0349.png","PA_0349-octobre2018.jpg"],"name":"PA_0349","longitude":"2.3025930000","latitude":"48.8612450000","address":" 7 avenue Bosquet","points":20,"reportDate":2018,"city":"Paris - 7&egrave;me arrondissement","state":"OK"},{"url":["PA_0350.png","PA_0350-avril2015.jpg"],"name":"PA_0350","longitude":"2.3650820000","latitude":"48.8229330000","address":" école primaire de l'avenue d'Ivry","points":10,"reportDate":2017,"city":"Paris - 13&egrave;me arrondissement","state":"Un peu d&eacute;grad&eacute;"},{"url":["PA_0351.png","PA_0351-juin2018.jpg"],"name":"PA_0351","longitude":"2.3941950000","latitude":"48.8700210000","address":" 121 rue de Ménilmontant","points":20,"reportDate":2019,"city":"Paris - 20&egrave;me arrondissement","state":"OK"},{"url":["PA_0352.png","PA_0352-avril2019.jpg"],"name":"PA_0352","longitude":"2.3582142591","latitude":"48.8776748220","address":" 21 rue d'Alsace","points":10,"reportDate":2019,"city":"Paris - 10&egrave;me arrondissement","state":"OK"},{"url":["PA_0353.png","PA_0353-decembre2017.jpg"],"name":"PA_0353","longitude":"2.3247500000","latitude":"48.8694600000","address":" sortie de métro face au 27 boulevard de la Madeleine","points":20,"reportDate":2017,"city":"Paris - 8&egrave;me arrondissement","state":"OK"},{"url":["PA_0354.png","PA_0354-septembre2016.jpg"],"name":"PA_0354","longitude":"2.3459150000","latitude":"48.8586590000","address":" 13 rue Jean Lantier","points":20,"reportDate":2016,"city":"Paris - 1er arrondissement","state":"OK"},{"url":["PA_0355.png","PA_0355-mars2015.jpg"],"name":"PA_0355","longitude":"2.3497076332","latitude":"48.8626291230","address":" 4 rue de la Grande Truanderie","points":30,"reportDate":2018,"city":"Paris - 1er arrondissement","state":"D&eacute;truit !"},{"url":["PA_0357.png","PA_0357-avril2015.jpg"],"name":"PA_0357","longitude":"2.2903550000","latitude":"48.8320370000","address":" 21 boulevard Lefebvre","points":10,"reportDate":2019,"city":"Paris - 15&egrave;me arrondissement","state":"D&eacute;grad&eacute;"},{"url":["PA_0358.png","PA_0358-fevrier2018.jpg"],"name":"PA_0358","longitude":"2.3912850000","latitude":"48.8714630000","address":" 14 rue de Savies","points":10,"reportDate":2018,"city":"Paris - 20&egrave;me arrondissement","state":"OK"},{"url":["PA_0359.png","PA_0359-janvier2019.jpg"],"name":"PA_0359","longitude":"2.3328640000","latitude":"48.8664240000","address":" 45 rue Saint-Roch","points":20,"reportDate":2019,"city":"Paris - 1er arrondissement","state":"OK"},{"url":["PA_0360.png","PA_0360-mars2015.jpg"],"name":"PA_0360","longitude":"2.3311883211","latitude":"48.8639348630","address":" 0 rue Saint-Roch","points":10,"reportDate":2019,"city":"Paris - 1er arrondissement","state":"OK"},{"url":["PA_0362.png","PA_0362-fevrier2018.jpg"],"name":"PA_0362","longitude":"2.3647040000","latitude":"48.8717240000","address":" en face de Chez Prune","points":30,"reportDate":2018,"city":"Paris - 10&egrave;me arrondissement","state":"OK"},{"url":["PA_0363.png","PA_0363-avril2015.jpg"],"name":"PA_0363","longitude":"2.3600086569","latitude":"48.8262982710","address":" 116 avenue de Choisy","points":30,"reportDate":2019,"city":"Paris - 13&egrave;me arrondissement","state":"OK"},{"url":["PA_0364.png","PA_0364-juin2018.jpg"],"name":"PA_0364","longitude":"2.2963800000","latitude":"48.8371100000","address":" 347 rue de Vaugirard","points":10,"reportDate":2019,"city":"Paris - 15&egrave;me arrondissement","state":"OK"},{"url":["PA_0365.png","PA_0365-avril2015.jpg"],"name":"PA_0365","longitude":"2.3002810000","latitude":"48.8392490000","address":" 268 rue de Vaugirard","points":10,"reportDate":2019,"city":"Paris - 15&egrave;me arrondissement","state":"OK"},{"url":["PA_0366.png","PA_0366-septembre2016.jpg"],"name":"PA_0366","longitude":"2.3035600000","latitude":"48.8299000000","address":" 127 rue Castagnary","points":10,"reportDate":2016,"city":"Paris - 15&egrave;me arrondissement","state":"OK"},{"url":["PA_0367.png","PA_0367-fevrier2018.jpg"],"name":"PA_0367","longitude":"2.3017000000","latitude":"48.8298100000","address":" 108 rue Brancion","points":20,"reportDate":2019,"city":"Paris - 15&egrave;me arrondissement","state":"D&eacute;truit !"},{"url":["PA_0369.png","PA_0369-juin2016.jpg"],"name":"PA_0369","longitude":"2.3850820000","latitude":"48.8534040000","address":" 7 rue Jules Vallès","points":30,"reportDate":2018,"city":"Paris - 11&egrave;me arrondissement","state":"OK"},{"url":["PA_0371.png","PA_0371-avril2015.jpg"],"name":"PA_0371","longitude":"2.3831600000","latitude":"48.8503700000","address":" Ouest de la fontaine de Montreuil","points":10,"reportDate":2019,"city":"Paris - 11&egrave;me arrondissement","state":"OK"},{"url":["PA_0372.png","PA_0372-octobre2018.jpg"],"name":"PA_0372","longitude":"2.3740400000","latitude":"48.8519100000","address":" 63 rue du Faubourg Saint-Antoine","points":30,"reportDate":2018,"city":"Paris - 11&egrave;me arrondissement","state":"OK"},{"url":["PA_0373.png","PA_0373-septembre2018.jpg"],"name":"PA_0373","longitude":"2.3788090000","latitude":"48.8660610000","address":" 121 rue Oberkampf","points":10,"reportDate":2018,"city":"Paris - 11&egrave;me arrondissement","state":"OK"},{"url":["PA_0374.png","PA_0374-mars2015.jpg"],"name":"PA_0374","longitude":"2.3265410000","latitude":"48.8531980000","address":" 29 boulevard Raspail","points":10,"reportDate":2018,"city":"Paris - 7&egrave;me arrondissement","state":"OK"},{"url":["PA_0375.png","PA_0375-janvier2016.jpg"],"name":"PA_0375","longitude":"2.3953880000","latitude":"48.8709220000","address":" 2 rue de l'Est","points":10,"reportDate":2019,"city":"Paris - 20&egrave;me arrondissement","state":"OK"},{"url":["PA_0376.png","PA_0376-avril2015.jpg"],"name":"PA_0376","longitude":"2.3624420000","latitude":"48.8616700000","address":" 28 rue de Poitou","points":10,"reportDate":2019,"city":"Paris - 3&egrave;me arrondissement","state":"OK"},{"url":["PA_0377.png","PA_0377-fevrier2018.jpg"],"name":"PA_0377","longitude":"2.3710500000","latitude":"48.8630200000","address":" 52 boulevard Voltaire","points":30,"reportDate":2018,"city":"Paris - 11&egrave;me arrondissement","state":"OK"},{"url":["PA_0378.png","PA_0378-mars2017.jpg"],"name":"PA_0378","longitude":"2.3613100000","latitude":"48.8617400000","address":" 45 rue de Poitou","points":30,"reportDate":2018,"city":"Paris - 3&egrave;me arrondissement","state":"OK"},{"url":["PA_0379.png","PA_0379-juin2018.jpg"],"name":"PA_0379","longitude":"2.3573100000","latitude":"48.8588100000","address":" 17 rue des Blancs-Manteaux","points":20,"reportDate":2018,"city":"Paris - 4&egrave;me arrondissement","state":"OK"},{"url":["PA_0380.png","PA_0380-octobre2018.jpg"],"name":"PA_0380","longitude":"2.3092890000","latitude":"48.8629470000","address":" port du Gros-caillou","points":50,"reportDate":2019,"city":"Paris - 7&egrave;me arrondissement","state":"OK"},{"url":["PA_0381.png","PA_0381-mars2015.jpg"],"name":"PA_0381","longitude":"2.3012910000","latitude":"48.8522710000","address":" place Joffre","points":10,"reportDate":2019,"city":"Paris - 7&egrave;me arrondissement","state":"Un peu d&eacute;grad&eacute;"},{"url":["PA_0384.png","PA_0384-juin2016.jpg"],"name":"PA_0384","longitude":"2.3783340000","latitude":"48.8698150000","address":" 26 rue du Moulin Joly","points":30,"reportDate":2016,"city":"Paris - 11&egrave;me arrondissement","state":"OK"},{"url":["PA_0385.png","PA_0385-octobre2018.jpg"],"name":"PA_0385","longitude":"2.3685600000","latitude":"48.8314900000","address":" 41 rue Dunois","points":10,"reportDate":2018,"city":"Paris - 13&egrave;me arrondissement","state":"OK"},{"url":["PA_0386.png","PA_0386-mars2015.jpg"],"name":"PA_0386","longitude":"2.3208700000","latitude":"48.8818490000","address":" croisement rue de Rome/bvd des Batignolles","points":20,"reportDate":2019,"city":"Paris - 8&egrave;me arrondissement","state":"OK"},{"url":["PA_0388.png","PA_0388-janvier2018.jpg"],"name":"PA_0388","longitude":"2.3200920000","latitude":"48.8410830000","address":" Gare Montparnasse","points":30,"reportDate":2019,"city":"Paris - 15&egrave;me arrondissement","state":"OK"},{"url":["PA_0389.png","PA_0389-avril2015.jpg"],"name":"PA_0389","longitude":"2.3893520236","latitude":"48.8794670200","address":" 86 rue de Botzaris","points":30,"reportDate":2015,"city":"Paris - 19&egrave;me arrondissement","state":"OK"},{"url":["PA_0390.png","PA_0390-avril2015.jpg"],"name":"PA_0390","longitude":"2.3863667249","latitude":"48.8560205010","address":" 1 passage Gustave Lepeu","points":10,"reportDate":2018,"city":"Paris - 11&egrave;me arrondissement","state":"OK"},{"url":["PA_0391.png","PA_0391-janvier2016.jpg"],"name":"PA_0391","longitude":"2.3850190000","latitude":"48.8317400000","address":" 114 quai de Bercy","points":30,"reportDate":2016,"city":"Paris - 12&egrave;me arrondissement","state":"OK"},{"url":["PA_0392.png","PA_0392-janvier2016.jpg"],"name":"PA_0392","longitude":"2.3424480000","latitude":"48.8545650000","address":" 35 quai des Grands Augustins","points":30,"reportDate":2019,"city":"Paris - 6&egrave;me arrondissement","state":"OK"},{"url":["PA_0394.png","PA_0394-mars2015.jpg"],"name":"PA_0394","longitude":"2.3445779085","latitude":"48.8543510020","address":" pont Saint-Michel","points":50,"reportDate":2015,"city":"Paris - 1er arrondissement","state":"Un peu d&eacute;grad&eacute;"},{"url":["PA_0395.png","PA_0395-janvier2016.jpg"],"name":"PA_0395","longitude":"2.3244900000","latitude":"48.8518200000","address":" 14 rue Chomel","points":10,"reportDate":2016,"city":"Paris - 7&egrave;me arrondissement","state":"OK"},{"url":["PA_0396.png"],"name":"PA_0396","longitude":"2.3544100000","latitude":"48.8626680000","address":" 49 rue de Beaubourg","points":20,"reportDate":2019,"city":"Paris - 3&egrave;me arrondissement","state":"D&eacute;truit !"},{"url":["PA_0398.png","PA_0398-avril2015.jpg"],"name":"PA_0398","longitude":"2.3656547069","latitude":"48.8474200440","address":" 1 pont Morland","points":20,"reportDate":2019,"city":"Paris - 4&egrave;me arrondissement","state":"OK"},{"url":["PA_0399.png","PA_0399-juin2018.jpg"],"name":"PA_0399","longitude":"2.3021840000","latitude":"48.8625860000","address":" pont de l'Alma","points":10,"reportDate":2019,"city":"Paris - 7&egrave;me arrondissement","state":"Non visible"},{"url":["PA_0400.png","PA_0400-octobre2018.jpg"],"name":"PA_0400","longitude":"2.3022840000","latitude":"48.8621660000","address":" 93 quai d'Orsay","points":10,"reportDate":2018,"city":"Paris - 7&egrave;me arrondissement","state":"OK"},{"url":["PA_0401.png","PA_0401-septembre2018.jpg"],"name":"PA_0401","longitude":"2.3549473280","latitude":"48.8439992000","address":" fontaine de Cuvier","points":10,"reportDate":2018,"city":"Paris - 5&egrave;me arrondissement","state":"OK"},{"url":["PA_0402.png","PA_0402-juin2018.jpg"],"name":"PA_0402","longitude":"2.3201500000","latitude":"48.8624400000","address":" quai Anantole France","points":10,"reportDate":2018,"city":"Paris - 7&egrave;me arrondissement","state":"OK"},{"url":["PA_0403.png","PA_0403-avril2015.jpg"],"name":"PA_0403","longitude":"2.3028900000","latitude":"48.8320800000","address":" porte N-E du parc George Brassens","points":10,"reportDate":2015,"city":"Paris - 15&egrave;me arrondissement","state":"OK"},{"url":["PA_0404.png","PA_0404-avril2015.jpg"],"name":"PA_0404","longitude":"2.3420660000","latitude":"48.8694010000","address":" face au 2 place de la Bourse","points":20,"reportDate":2019,"city":"Paris - 2&egrave;me arrondissement","state":"OK"},{"url":["PA_0405.png","PA_0405-avril2015.jpg"],"name":"PA_0405","longitude":"2.3059310000","latitude":"48.8301680000","address":" face au 110 rue Castagnary","points":50,"reportDate":2019,"city":"Paris - 15&egrave;me arrondissement","state":"OK"},{"url":["PA_0406.png","PA_0406-avril2015.jpg"],"name":"PA_0406","longitude":"2.3571330000","latitude":"48.8607470000","address":" 4 rue de Braque","points":10,"reportDate":2018,"city":"Paris - 3&egrave;me arrondissement","state":"OK"},{"url":["PA_0407.png","PA_0407-juillet2016.jpg"],"name":"PA_0407","longitude":"2.3608830000","latitude":"48.8601020000","address":" 93 rue Vieille du Temple","points":30,"reportDate":2017,"city":"Paris - 3&egrave;me arrondissement","state":"D&eacute;truit !"},{"url":["PA_0410.png","PA_0410-juillet2015.jpg"],"name":"PA_0410","longitude":"2.3882200000","latitude":"48.8683930000","address":" 0 rue de la Mare","points":10,"reportDate":2015,"city":"Paris - 20&egrave;me arrondissement","state":"OK"},{"url":["PA_0411.png","PA_0411-avril2015.jpg"],"name":"PA_0411","longitude":"2.3979941010","latitude":"48.8670526190","address":" 68 rue Orfila","points":10,"reportDate":2015,"city":"Paris - 20&egrave;me arrondissement","state":"OK"},{"url":["PA_0412.png","PA_0412-decembre2018.jpg"],"name":"PA_0412","longitude":"2.3935520000","latitude":"48.8647990000","address":" 15 rue Robineau","points":10,"reportDate":2018,"city":"Paris - 20&egrave;me arrondissement","state":"OK"},{"url":["PA_0413.png","PA_0413-avril2019.jpg"],"name":"PA_0413","longitude":"2.3232090000","latitude":"48.8699170000","address":" 3 boulevard Malsherbes","points":10,"reportDate":2019,"city":"Paris - 8&egrave;me arrondissement","state":"OK"},{"url":["PA_0414.png","PA_0414-juillet2016.jpg"],"name":"PA_0414","longitude":"2.4100140000","latitude":"48.8919770000","address":" 2 rue du 11 Novembre 1918","points":10,"reportDate":2019,"city":"Paris - banlieue 93","state":"OK"},{"url":["PA_0415.png","PA_0415-avril2015.jpg"],"name":"PA_0415","longitude":"2.3863450000","latitude":"48.8528950000","address":" 34 rue Titon","points":10,"reportDate":2019,"city":"Paris - 11&egrave;me arrondissement","state":"OK"},{"url":["PA_0416.png","PA_0416-juin2018.jpg"],"name":"PA_0416","longitude":"2.3632210000","latitude":"48.8715370000","address":" 9 rue de Marseille","points":10,"reportDate":2018,"city":"Paris - 10&egrave;me arrondissement","state":"OK"},{"url":["PA_0418.png","PA_0418-janvier2016.jpg"],"name":"PA_0418","longitude":"2.3443310000","latitude":"48.9014610000","address":" 139 avenue Michelet","points":10,"reportDate":2019,"city":"Paris - 18&egrave;me arrondissement","state":"D&eacute;truit !"},{"url":["PA_0420.png","PA_0420-janvier2016.jpg"],"name":"PA_0420","longitude":"2.3360240000","latitude":"48.9091310000","address":" 45 rue Anselme","points":10,"reportDate":2019,"city":"Paris - banlieue 93","state":"OK"},{"url":["PA_0421.png","PA_0421-decembre2018.jpg"],"name":"PA_0421","longitude":"2.3957100000","latitude":"48.8647600000","address":" 71 rue des Rondeaux","points":20,"reportDate":2018,"city":"Paris - 20&egrave;me arrondissement","state":"OK"},{"url":["PA_0422.png","PA_0422-octobre2018.jpg"],"name":"PA_0422","longitude":"2.3691800000","latitude":"48.8312400000","address":" 32 rue Dunois","points":10,"reportDate":2019,"city":"Paris - 13&egrave;me arrondissement","state":"OK"},{"url":["PA_0423.png","PA_0423-mars2019.jpg"],"name":"PA_0423","longitude":"2.3099150000","latitude":"48.8718120000","address":" 63 avenue Franklin Delano Roosevelt","points":20,"reportDate":2019,"city":"Paris - 8&egrave;me arrondissement","state":"OK"},{"url":["PA_0424.png","PA_0424-octobre2018.jpg"],"name":"PA_0424","longitude":"2.2955820000","latitude":"48.8646650000","address":" 13 rue de la Manutention","points":20,"reportDate":2018,"city":"Paris - 16&egrave;me arrondissement","state":"OK"},{"url":["PA_0426.png","PA_0426-mars2019.jpg"],"name":"PA_0426","longitude":"2.3570220000","latitude":"48.8160640000","address":" face au pavillon d'Italie","points":30,"reportDate":2019,"city":"Paris - 13&egrave;me arrondissement","state":"D&eacute;grad&eacute;"},{"url":["PA_0427.png","PA_0427-avril2015.jpg"],"name":"PA_0427","longitude":"2.3753630000","latitude":"48.8299120000","address":" 10 rue de Tolbiac","points":30,"reportDate":2019,"city":"Paris - 13&egrave;me arrondissement","state":"OK"},{"url":["PA_0428.png","PA_0428-juillet2015.jpg"],"name":"PA_0428","longitude":"2.2923560000","latitude":"48.8745040000","address":" 7 avenue de la Grande Armée","points":20,"reportDate":2018,"city":"Paris - 16&egrave;me arrondissement","state":"OK"},{"url":["PA_0429.png","PA_0429-juillet2015.jpg"],"name":"PA_0429","longitude":"2.2924786806","latitude":"48.8762768290","address":" 22 avenue Carnot","points":10,"reportDate":2019,"city":"Paris - 17&egrave;me arrondissement","state":"OK"},{"url":["PA_0430.png","PA_0430-decembre2017.jpg"],"name":"PA_0430","longitude":"2.3651300000","latitude":"48.8721830000","address":" le Comptoire Général","points":20,"reportDate":2017,"city":"Paris - 10&egrave;me arrondissement","state":"OK"},{"url":["PA_0431.png","PA_0431-septembre2018.jpg"],"name":"PA_0431","longitude":"2.4142880000","latitude":"48.8472690000","address":" rond-point de la porte de Vincennes","points":10,"reportDate":2019,"city":"Paris - 20&egrave;me arrondissement","state":"D&eacute;grad&eacute;"},{"url":["PA_0432.png","PA_0432-juin2018.jpg"],"name":"PA_0432","longitude":"2.3932940000","latitude":"48.8711310000","address":" 24 rue de l'Est","points":10,"reportDate":2019,"city":"Paris - 20&egrave;me arrondissement","state":"D&eacute;truit !"},{"url":["PA_0433.png","PA_0433-septembre2016.jpg"],"name":"PA_0433","longitude":"2.4022775880","latitude":"48.8433222620","address":" 33 rue de Sibuet","points":10,"reportDate":2018,"city":"Paris - 12&egrave;me arrondissement","state":"OK"},{"url":["PA_0434.png","PA_0434-juin2016.jpg"],"name":"PA_0434","longitude":"2.3979900000","latitude":"48.8407250000","address":" 19 rue Lamblardie","points":30,"reportDate":2019,"city":"Paris - 12&egrave;me arrondissement","state":"D&eacute;truit !"},{"url":["PA_0436.png","PA_0436-juin2016.jpg"],"name":"PA_0436","longitude":"2.3508140000","latitude":"48.8609450000","address":" Centre culturel de Serbie","points":50,"reportDate":2019,"city":"Paris - 4&egrave;me arrondissement","state":"OK"},{"url":["PA_0437.png","PA_0437-juillet2015.jpg"],"name":"PA_0437","longitude":"2.3705950000","latitude":"48.8776510000","address":" place du Colonel Fabien","points":20,"reportDate":2017,"city":"Paris - 19&egrave;me arrondissement","state":"OK"},{"url":["PA_0438.png","PA_0438-juillet2015.jpg"],"name":"PA_0438","longitude":"2.3858620000","latitude":"48.8829490000","address":" petite ceinture pont de la rue Manin","points":20,"reportDate":2019,"city":"Paris - 19&egrave;me arrondissement","state":"OK"},{"url":["PA_0439.png","PA_0439-mai2019.jpg"],"name":"PA_0439","longitude":"2.3282200000","latitude":"48.8840360000","address":" 134 boulevard de Clichy","points":10,"reportDate":2019,"city":"Paris - 18&egrave;me arrondissement","state":"OK"},{"url":["PA_0441.png","PA_0441-mars2017.jpg"],"name":"PA_0441","longitude":"2.3562890000","latitude":"48.8155330000","address":" 7 rue Gabriel Péri","points":50,"reportDate":2019,"city":"Paris - banlieue 94","state":"OK"},{"url":["PA_0442.png","PA_0442-juin2018.jpg"],"name":"PA_0442","longitude":"2.3930540000","latitude":"48.8744600000","address":" 46 Olivier Métra","points":20,"reportDate":2018,"city":"Paris - 20&egrave;me arrondissement","state":"OK"},{"url":["PA_0443.png","PA_0443-juin2018.jpg"],"name":"PA_0443","longitude":"2.3810940000","latitude":"48.8761500000","address":" entrée sud des Buttes Chaumont","points":10,"reportDate":2018,"city":"Paris - 19&egrave;me arrondissement","state":"OK"},{"url":["PA_0444.png","PA_0444-avril2015.jpg"],"name":"PA_0444","longitude":"2.3658420000","latitude":"48.8831490000","address":" 14 rue Chaudron","points":20,"reportDate":2019,"city":"Paris - 10&egrave;me arrondissement","state":"Tr&egrave;s d&eacute;grad&eacute;"},{"url":["PA_0445.png","PA_0445-avril2015.jpg"],"name":"PA_0445","longitude":"2.3608160018","latitude":"48.8803031210","address":" 181 rue Lafayette","points":10,"reportDate":2019,"city":"Paris - 10&egrave;me arrondissement","state":"OK"},{"url":["PA_0446.png","PA_0446-decembre2018.jpg"],"name":"PA_0446","longitude":"2.3732370000","latitude":"48.8702610000","address":" 174 rue Saint-Maur","points":10,"reportDate":2019,"city":"Paris - 11&egrave;me arrondissement","state":"Tr&egrave;s d&eacute;grad&eacute;"},{"url":["PA_0447.png","PA_0447-avril2015.jpg"],"name":"PA_0447","longitude":"2.3637700000","latitude":"48.8726500000","address":" à l'intérieur d'Artazart","points":10,"reportDate":2018,"city":"Paris - 10&egrave;me arrondissement","state":"OK"},{"url":["PA_0448.png","PA_0448-decembre2017.jpg"],"name":"PA_0448","longitude":"2.3651480000","latitude":"48.8721480000","address":" 80 quai Jemmapes","points":20,"reportDate":2017,"city":"Paris - 10&egrave;me arrondissement","state":"OK"},{"url":["PA_0449.png","PA_0449-juin2017.jpg"],"name":"PA_0449","longitude":"2.3147160000","latitude":"48.8715520000","address":" 73 rue du Faubourg Saint-Honoré","points":10,"reportDate":2017,"city":"Paris - 8&egrave;me arrondissement","state":"OK"},{"url":["PA_0450.png","PA_0450-juin2018.jpg"],"name":"PA_0450","longitude":"2.3568620000","latitude":"48.8647700000","address":" 5 rue Volta","points":20,"reportDate":2018,"city":"Paris - 3&egrave;me arrondissement","state":"OK"},{"url":["PA_0451.png","PA_0451-septembre2018.jpg"],"name":"PA_0451","longitude":"2.3766383528","latitude":"48.8533335680","address":" 39 rue de Charonne","points":10,"reportDate":2018,"city":"Paris - 11&egrave;me arrondissement","state":"OK"},{"url":["PA_0452.png","PA_0452-avril2015.jpg"],"name":"PA_0452","longitude":"2.3763670000","latitude":"48.8528110000","address":" 5 passage Saint-Antoine","points":10,"reportDate":2018,"city":"Paris - 11&egrave;me arrondissement","state":"OK"},{"url":["PA_0453.png","PA_0453-juin2016.jpg"],"name":"PA_0453","longitude":"2.3896310000","latitude":"48.8645620000","address":" 24 à 32 rue des Amandiers","points":30,"reportDate":2016,"city":"Paris - 20&egrave;me arrondissement","state":"OK"},{"url":["PA_0454.png","PA_0454-avril2015.jpg"],"name":"PA_0454","longitude":"2.3636376857","latitude":"48.8731270100","address":" Assainissement de Valmy","points":30,"reportDate":2019,"city":"Paris - 10&egrave;me arrondissement","state":"OK"},{"url":["PA_0455.png","PA_0455-octobre2018.jpg"],"name":"PA_0455","longitude":"2.3377208411","latitude":"48.8551548740","address":" 48 rue Mazarine","points":30,"reportDate":2019,"city":"Paris - 6&egrave;me arrondissement","state":"Un peu d&eacute;grad&eacute;"},{"url":["PA_0456.png","PA_0456-octobre2018.jpg"],"name":"PA_0456","longitude":"2.2944125533","latitude":"48.8646000710","address":" 1 place d'Iéna","points":10,"reportDate":2019,"city":"Paris - 16&egrave;me arrondissement","state":"OK"},{"url":["PA_0458.png","PA_0458-septembre2016.jpg"],"name":"PA_0458","longitude":"2.3909360000","latitude":"48.8664030000","address":" 16 rue Elise Borey","points":20,"reportDate":2016,"city":"Paris - 20&egrave;me arrondissement","state":"OK"},{"url":["PA_0459.png","PA_0459-octobre2018.jpg"],"name":"PA_0459","longitude":"2.3682500000","latitude":"48.8349140000","address":" métro Chevaleret","points":30,"reportDate":2018,"city":"Paris - 13&egrave;me arrondissement","state":"OK"},{"url":["PA_0460.png","PA_0460-octobre2018.jpg"],"name":"PA_0460","longitude":"2.3699520000","latitude":"48.8343950000","address":" 39P rue Louise Weiss","points":10,"reportDate":2018,"city":"Paris - 13&egrave;me arrondissement","state":"OK"},{"url":["PA_0461.png","PA_0461-septembre2016.jpg"],"name":"PA_0461","longitude":"2.4000090000","latitude":"48.8617650000","address":" 5-7 rue Charles Renouvier","points":30,"reportDate":2019,"city":"Paris - 20&egrave;me arrondissement","state":"OK"},{"url":["PA_0462.png","PA_0462-juin2016.jpg"],"name":"PA_0462","longitude":"2.3475780000","latitude":"48.8683780000","address":" 44 rue de Cléry","points":20,"reportDate":2019,"city":"Paris - 2&egrave;me arrondissement","state":"OK"},{"url":["PA_0465.png","PA_0465-juin2016.jpg"],"name":"PA_0465","longitude":"2.3785460000","latitude":"48.8569770000","address":" 114 rue de la Roquette","points":20,"reportDate":2018,"city":"Paris - 11&egrave;me arrondissement","state":"OK"},{"url":["PA_0466.png","PA_0466-decembre2018.jpg"],"name":"PA_0466","longitude":"2.3734020000","latitude":"48.8681460000","address":" 51 rue de la Fontaine au Roi","points":30,"reportDate":2018,"city":"Paris - 11&egrave;me arrondissement","state":"OK"},{"url":["PA_0467.png","PA_0467-decembre2017.jpg"],"name":"PA_0467","longitude":"2.3849690000","latitude":"48.8715670000","address":" parc de Belleville","points":30,"reportDate":2017,"city":"Paris - 20&egrave;me arrondissement","state":"OK"},{"url":["PA_0468.png","PA_0468-septembre2018.jpg"],"name":"PA_0468","longitude":"2.3469798266","latitude":"48.8659198740","address":" 65 rue Montorgueil","points":10,"reportDate":2019,"city":"Paris - 2&egrave;me arrondissement","state":"OK"},{"url":["PA_0470.png","PA_0470-septembre2016.jpg"],"name":"PA_0470","longitude":"2.3456829786","latitude":"48.8647835750","address":" 1057 & 1062","points":30,"reportDate":2019,"city":"Paris - 2&egrave;me arrondissement","state":"OK"},{"url":["PA_0471.png","PA_0471-avril2015.jpg"],"name":"PA_0471","longitude":"2.3900910000","latitude":"48.8688210000","address":" 83 rue de Ménilmontant","points":30,"reportDate":2015,"city":"Paris - 20&egrave;me arrondissement","state":"OK"},{"url":["PA_0472.png","PA_0472-juillet2016.jpg"],"name":"PA_0472","longitude":"2.3713620000","latitude":"48.8590400000","address":" 11Z rue Gaby Sylvia","points":20,"reportDate":2016,"city":"Paris - 11&egrave;me arrondissement","state":"OK"},{"url":["PA_0473.png","PA_0473-mars2015.jpg"],"name":"PA_0473","longitude":"2.3380064964","latitude":"48.8514707200","address":" 3 rue Saint-Sulpice","points":30,"reportDate":2018,"city":"Paris - 6&egrave;me arrondissement","state":"OK"},{"url":["PA_0474.png","PA_0474-juillet2015.jpg"],"name":"PA_0474","longitude":"2.3085770000","latitude":"48.8805780000","address":" 2 rue de Prony","points":10,"reportDate":2019,"city":"Paris - 17&egrave;me arrondissement","state":"OK"},{"url":["PA_0475.png","PA_0475-juillet2016.jpg"],"name":"PA_0475","longitude":"2.2933250000","latitude":"48.8746730000","address":" 2 avenue de la Grande Armée","points":20,"reportDate":2019,"city":"Paris - 17&egrave;me arrondissement","state":"OK"},{"url":["PA_0476.png","PA_0476-mars2015.jpg"],"name":"PA_0476","longitude":"2.3060882091","latitude":"48.8718100400","address":" 1 rue Paul Baudry","points":10,"reportDate":2018,"city":"Paris - 8&egrave;me arrondissement","state":"OK"},{"url":["PA_0477.png","PA_0477-juin2017.jpg"],"name":"PA_0477","longitude":"2.4155530000","latitude":"48.8543380000","address":" 267b rue de Paris","points":30,"reportDate":2018,"city":"Paris - 20&egrave;me arrondissement","state":"OK"},{"url":["PA_0478.png","PA_0478-mai2015.jpg"],"name":"PA_0478","longitude":"2.2814380000","latitude":"48.8526160000","address":" pont du Rouelle","points":50,"reportDate":2019,"city":"Paris - 16&egrave;me arrondissement","state":"D&eacute;grad&eacute;"},{"url":["PA_0480.png","PA_0480-septembre2018.jpg"],"name":"PA_0480","longitude":"2.3597740000","latitude":"48.8558700000","address":" 14 rue du Roi de Sicile","points":50,"reportDate":2019,"city":"Paris - 4&egrave;me arrondissement","state":"D&eacute;truit !"},{"url":["PA_0481.png","PA_0481-mars2015.jpg"],"name":"PA_0481","longitude":"2.3324820000","latitude":"48.8449740000","address":" sous la plaque de rue du coin du parc","points":20,"reportDate":2019,"city":"Paris - 6&egrave;me arrondissement","state":"OK"},{"url":["PA_0484.png","PA_0484-mars2015.jpg"],"name":"PA_0484","longitude":"2.3230060000","latitude":"48.8783880000","address":" 24 rue de Vienne","points":20,"reportDate":2015,"city":"Paris - 8&egrave;me arrondissement","state":"OK"},{"url":["PA_0485.png","PA_0485-juillet2015.jpg"],"name":"PA_0485","longitude":"2.2899090000","latitude":"48.8702640000","address":" 15 rue Paul Valérie","points":10,"reportDate":2019,"city":"Paris - 16&egrave;me arrondissement","state":"OK"},{"url":["PA_0486.png","PA_0486-fevrier2018.jpg"],"name":"PA_0486","longitude":"2.3190900000","latitude":"48.8529090000","address":" 26 rue Vaneau","points":20,"reportDate":2018,"city":"Paris - 7&egrave;me arrondissement","state":"OK"},{"url":["PA_0488.png","PA_0488-septembre2016.jpg"],"name":"PA_0488","longitude":"2.4003900000","latitude":"48.8348400000","address":" 79 rue de Wattignies","points":10,"reportDate":2016,"city":"Paris - 12&egrave;me arrondissement","state":"OK"},{"url":["PA_0489.png"],"name":"PA_0489","longitude":"2.3855942487","latitude":"48.8741114050","address":" 1 rue Clavel","points":30,"reportDate":2019,"city":"Paris - 19&egrave;me arrondissement","state":"OK"},{"url":["PA_0490.png","PA_0490-janvier2016.jpg"],"name":"PA_0490","longitude":"2.3919810000","latitude":"48.8995790000","address":" 10 rue du Chemin de Fer","points":50,"reportDate":2016,"city":"Paris - 19&egrave;me arrondissement","state":"OK"},{"url":["PA_0492.png","PA_0492-septembre2017.jpg"],"name":"PA_0492","longitude":"2.3953100000","latitude":"48.8738800000","address":" 36 rue du Soleil","points":20,"reportDate":2017,"city":"Paris - 20&egrave;me arrondissement","state":"OK"},{"url":["PA_0493.png","PA_0493-septembre2018.jpg"],"name":"PA_0493","longitude":"2.3435000000","latitude":"48.8612400000","address":" 87 rue Saint-Honoré","points":10,"reportDate":2018,"city":"Paris - 1er arrondissement","state":"OK"},{"url":["PA_0494.png","PA_0494-janvier2019.jpg"],"name":"PA_0494","longitude":"2.3251493275","latitude":"48.8413275280","address":" 41 rue Delambre","points":10,"reportDate":2019,"city":"Paris - 14&egrave;me arrondissement","state":"OK"},{"url":["PA_0495.png","PA_0495-septembre2016.jpg"],"name":"PA_0495","longitude":"2.3525570000","latitude":"48.8444970000","address":" 17 rue de Navarre","points":20,"reportDate":2016,"city":"Paris - 5&egrave;me arrondissement","state":"OK"},{"url":["PA_0496.png","PA_0496-avril2019.jpg"],"name":"PA_0496","longitude":"2.3562910000","latitude":"48.8687890000","address":" 51 boulevard Saint-Martin","points":10,"reportDate":2019,"city":"Paris - 3&egrave;me arrondissement","state":"OK"},{"url":["PA_0497.png","PA_0497-juillet2015.jpg"],"name":"PA_0497","longitude":"2.5281520000","latitude":"49.0067620000","address":" sortie routière de Roissy-Charles-de-Gaulle","points":50,"reportDate":2019,"city":"Paris - banlieue 93","state":"OK"},{"url":["PA_0498.png","PA_0498-octobre2016.jpg"],"name":"PA_0498","longitude":"2.3357300000","latitude":"48.8807780000","address":" 64 rue de la Rochefoucauld","points":10,"reportDate":2016,"city":"Paris - 9&egrave;me arrondissement","state":"OK"},{"url":["PA_0499.png","PA_0499-mars2019.jpg"],"name":"PA_0499","longitude":"2.3655070000","latitude":"48.8775190000","address":" pont Eugène-Varlin","points":20,"reportDate":2019,"city":"Paris - 10&egrave;me arrondissement","state":"OK"},{"url":["PA_0501.png","PA_0501-janvier2019.jpg"],"name":"PA_0501","longitude":"2.3646730000","latitude":"48.8663610000","address":" au pied des escaliers du boulevard du Temple","points":20,"reportDate":2019,"city":"Paris - 3&egrave;me arrondissement","state":"OK"},{"url":["PA_0502.png","PA_0502-mars2019.jpg"],"name":"PA_0502","longitude":"2.3530000448","latitude":"48.8404139830","address":" 29 rue Censier","points":10,"reportDate":2019,"city":"Paris - 5&egrave;me arrondissement","state":"OK"},{"url":["PA_0503.png","PA_0503-janvier2016.jpg"],"name":"PA_0503","longitude":"2.3646720000","latitude":"48.8603820000","address":" 74 rue de Turenne","points":10,"reportDate":2018,"city":"Paris - 3&egrave;me arrondissement","state":"OK"},{"url":["PA_0504.png","PA_0504-avril2015.jpg"],"name":"PA_0504","longitude":"2.3583700000","latitude":"48.8577140000","address":" 52 rue des Rosiers","points":20,"reportDate":2019,"city":"Paris - 4&egrave;me arrondissement","state":"Non visible"},{"url":["PA_0506.png","PA_0506-mars2017.jpg"],"name":"PA_0506","longitude":"2.3492920000","latitude":"48.8668870000","address":" square Pierre Lazareff","points":20,"reportDate":2019,"city":"Paris - 2&egrave;me arrondissement","state":"OK"},{"url":["PA_0507.png","PA_0507-avril2015.jpg"],"name":"PA_0507","longitude":"2.3690370000","latitude":"48.8753790000","address":" 21 rue Juliette Dodu","points":50,"reportDate":2018,"city":"Paris - 10&egrave;me arrondissement","state":"OK"},{"url":["PA_0508.png","PA_0508-septembre2018.jpg"],"name":"PA_0508","longitude":"2.3441750000","latitude":"48.8617020000","address":" 9 rue des Prouvaires","points":10,"reportDate":2019,"city":"Paris - 1er arrondissement","state":"OK"},{"url":["PA_0510.png"],"name":"PA_0510","longitude":"2.3706489801","latitude":"48.8532656000","address":" place de la Bastille","points":30,"reportDate":2019,"city":"Paris - 11&egrave;me arrondissement","state":"OK"},{"url":["PA_0514.png","PA_0514-mai2015.jpg"],"name":"PA_0514","longitude":"2.2969050000","latitude":"48.8641530000","address":" Palais de Tokyo","points":10,"reportDate":2015,"city":"Paris - 16&egrave;me arrondissement","state":"OK"},{"url":["PA_0515.png","PA_0515-avril2015.jpg"],"name":"PA_0515","longitude":"2.3939144611","latitude":"48.8485337920","address":" 278 rue du Faubourg Saint-Antoine","points":20,"reportDate":2019,"city":"Paris - 12&egrave;me arrondissement","state":"OK"},{"url":["PA_0516.png","PA_0516-avril2015.jpg"],"name":"PA_0516","longitude":"2.3955430000","latitude":"48.8701720000","address":" 129-133 rue de Ménilmontant","points":10,"reportDate":2019,"city":"Paris - 20&egrave;me arrondissement","state":"OK"},{"url":["PA_0517.png","PA_0517-juillet2016.jpg"],"name":"PA_0517","longitude":"2.3654600000","latitude":"48.8616700000","address":" 13 rue Froissart","points":10,"reportDate":2018,"city":"Paris - 3&egrave;me arrondissement","state":"OK"},{"url":["PA_0520.png","PA_0520-septembre2018.jpg"],"name":"PA_0520","longitude":"2.4946960000","latitude":"48.8355460000","address":" viaduc rue Jacques Kablé","points":20,"reportDate":2019,"city":"Paris - banlieue 94","state":"OK"},{"url":["PA_0521.png","PA_0521-juin2018.jpg"],"name":"PA_0521","longitude":"2.3998250000","latitude":"48.8755380000","address":" cimetière de Belleville","points":20,"reportDate":2018,"city":"Paris - 20&egrave;me arrondissement","state":"OK"},{"url":["PA_0522.png","PA_0522-septembre2016.jpg"],"name":"PA_0522","longitude":"2.3690360000","latitude":"48.8663790000","address":" Square Jules Ferry","points":10,"reportDate":2019,"city":"Paris - 11&egrave;me arrondissement","state":"D&eacute;truit !"},{"url":["PA_0523.png","PA_0523-juin2018.jpg"],"name":"PA_0523","longitude":"2.3532240000","latitude":"48.8527870000","address":" face au 4 rue Jean du Bellay","points":20,"reportDate":2019,"city":"Paris - 4&egrave;me arrondissement","state":"OK"},{"url":["PA_0524.png","PA_0524-juillet2015.jpg"],"name":"PA_0524","longitude":"2.5088850000","latitude":"48.8269050000","address":" 244 avenue du Général de Gaulle","points":50,"reportDate":2019,"city":"Paris - banlieue 94","state":"OK"},{"url":["PA_0525.png","PA_0525-janvier2019.jpg"],"name":"PA_0525","longitude":"2.3527590000","latitude":"48.8594820000","address":" 16 rue Saint-Merri","points":20,"reportDate":2019,"city":"Paris - 4&egrave;me arrondissement","state":"OK"},{"url":["PA_0526.png","PA_0526-septembre2017.jpg"],"name":"PA_0526","longitude":"2.4871260000","latitude":"48.8604320000","address":" au croisement de l'A86 et de la ligne de RER E","points":30,"reportDate":2017,"city":"Paris - banlieue 94","state":"OK"},{"url":["PA_0527.png","PA_0527-septembre2018.jpg"],"name":"PA_0527","longitude":"2.3662210000","latitude":"48.8331810000","address":" 74 rue Dunois","points":10,"reportDate":2018,"city":"Paris - 13&egrave;me arrondissement","state":"OK"},{"url":["PA_0528.png","PA_0528-avril2015.jpg"],"name":"PA_0528","longitude":"2.3475600000","latitude":"48.8506320000","address":" 13 rue des Anglais","points":50,"reportDate":2019,"city":"Paris - 5&egrave;me arrondissement","state":"D&eacute;truit !"},