[{
    "url": "http://invader.spotter.free.fr/images/PA_0002-grosplan.png",
    "name": "PA_0002",
    "longitude": "2.3504940000",
    "latitude": "48.8610710000",
    "address": " 45 rue Quincampoix"
}, {
    "url": "http://invader.spotter.free.fr/images/PA_0003-grosplan.png",
    "name": "PA_0003",
    "longitude": "2.3485190000",
    "latitude": "48.8488510000",
    "address": " 14 rue de la Montagne Sainte-Geneviève"
}, {
    "url": "http://invader.spotter.free.fr/images/PA_0004-grosplan.png",
    "name": "PA_0004",
    "longitude": "2.3510850000",
    "latitude": "48.8471050000",
    "address": " 22 rue Monge"
}, {
    "url": "http://invader.spotter.free.fr/images/PA_0005-grosplan.png",
    "name": "PA_0005",
    "longitude": "2.3337600000",
    "latitude": "48.8518100000",
    "address": " 25 rue Guisarde"
}, {
    "url": "http://invader.spotter.free.fr/images/PA_0006-grosplan.png",
    "name": "PA_0006",
    "longitude": "2.3367690000",
    "latitude": "48.8550630000",
    "address": " 40 rue de Seine"
}, {
    "url": "http://invader.spotter.free.fr/images/PA_0007-grosplan.png",
    "name": "PA_0007",
    "longitude": "2.3635170000",
    "latitude": "48.8730730000",
    "address": " 89 quai de Valmy"
}, {
    "url": "http://invader.spotter.free.fr/images/PA_0008-grosplan.png",
    "name": "PA_0008",
    "longitude": "2.3975940000",
    "latitude": "48.8657870000",
    "address": " Impasse Cordon-Boussard"
}, {
    "url": "http://invader.spotter.free.fr/images/PA_0010-grosplan.png",
    "name": "PA_0010",
    "longitude": "2.3757400000",
    "latitude": "48.8532600000",
    "address": " 30 rue de Charonne"
}, {
    "url": "http://invader.spotter.free.fr/images/PA_0013-grosplan.png",
    "name": "PA_0013",
    "longitude": "2.3754630000",
    "latitude": "48.8474010000",
    "address": " 47 avenue Daumesnil"
}, {
    "url": "http://invader.spotter.free.fr/images/PA_0014-grosplan.png",
    "name": "PA_0014",
    "longitude": "2.3727156221",
    "latitude": "48.8488364940",
    "address": " 59 avenue Ledru-Rollin"
}, {
    "url": "http://invader.spotter.free.fr/images/PA_0015-grosplan.png",
    "name": "PA_0015",
    "longitude": "2.3808310000",
    "latitude": "48.8481170000",
    "address": " 24 rue de Cîteaux"
}, {
    "url": "http://invader.spotter.free.fr/images/PA_0016-grosplan.png",
    "name": "PA_0016",
    "longitude": "2.3743750000",
    "latitude": "48.8494900000",
    "address": " 76 avenue Ledru-Rollin"
}, {
    "url": "http://invader.spotter.free.fr/images/PA_0017-grosplan.png",
    "name": "PA_0017",
    "longitude": "2.3619390000",
    "latitude": "48.8157510000",
    "address": " face à la rue Voltaire"
}, {
    "url": "http://invader.spotter.free.fr/images/PA_0018-grosplan.png",
    "name": "PA_0018",
    "longitude": "2.3412770000",
    "latitude": "48.8885380000",
    "address": " 16 rue Saint-Vincent"
}, {
    "url": "http://invader.spotter.free.fr/images/PA_0019-grosplan.png",
    "name": "PA_0019",
    "longitude": "2.3640430000",
    "latitude": "48.8732030000",
    "address": " pont piéton de la Grange aux Belles"
}, {
    "url": "http://invader.spotter.free.fr/images/PA_0020-grosplan.png",
    "name": "PA_0020",
    "longitude": "2.3459080000",
    "latitude": "48.8707180000",
    "address": " 20 rue Saint-Fiacre"
}, {
    "url": "http://invader.spotter.free.fr/images/PA_0021-grosplan.png",
    "name": "PA_0021",
    "longitude": "2.3455640000",
    "latitude": "48.8701370000",
    "address": " 12 rue Saint-Fiacre"
}, {
    "url": "http://invader.spotter.free.fr/images/PA_0022-grosplan.png",
    "name": "PA_0022",
    "longitude": "2.3646542420",
    "latitude": "48.8598428440",
    "address": " 68 rue de Turenne"
}, {
    "url": "http://invader.spotter.free.fr/images/PA_0023-grosplan.png",
    "name": "PA_0023",
    "longitude": "2.3534300000",
    "latitude": "48.8622000000",
    "address": " 5 impasse Beaubourg"
}, {
    "url": "http://invader.spotter.free.fr/images/PA_0024-grosplan.png",
    "name": "PA_0024",
    "longitude": "2.3545260000",
    "latitude": "48.8333850000",
    "address": " 73 avenue des Gobelins"
}, {
    "url": "http://invader.spotter.free.fr/images/PA_0025-grosplan.png",
    "name": "PA_0025",
    "longitude": "2.3634560000",
    "latitude": "48.8646340000",
    "address": " 2 rue de la Corderie"
}, {
    "url": "http://invader.spotter.free.fr/images/PA_0027-grosplan.png",
    "name": "PA_0027",
    "longitude": "2.3579490000",
    "latitude": "48.8612070000",
    "address": " fontaine des Haudriettes"
}, {
    "url": "http://invader.spotter.free.fr/images/PA_0028-grosplan.png",
    "name": "PA_0028",
    "longitude": "2.3766190000",
    "latitude": "48.8539230000",
    "address": " face au 5 rue Keller"
}, {
    "url": "http://invader.spotter.free.fr/images/PA_0029-grosplan.png",
    "name": "PA_0029",
    "longitude": "2.3598940000",
    "latitude": "48.8625970000",
    "address": " 21 rue Pastourelle"
}, {
    "url": "http://invader.spotter.free.fr/images/PA_0030-grosplan.png",
    "name": "PA_0030",
    "longitude": "2.3505110000",
    "latitude": "48.8609590000",
    "address": " 44 rue Quincampoix"
}, {
    "url": "http://invader.spotter.free.fr/images/PA_0031-grosplan.png",
    "name": "PA_0031",
    "longitude": "2.3506800000",
    "latitude": "48.8612500000",
    "address": " 30 rue de Venise"
}, {
    "url": "http://invader.spotter.free.fr/images/PA_0032-grosplan.png",
    "name": "PA_0032",
    "longitude": "2.3627500000",
    "latitude": "48.8609600000",
    "address": " 108 rue Vieille du Temple"
}, {
    "url": "http://invader.spotter.free.fr/images/PA_0034-grosplan.png",
    "name": "PA_0034",
    "longitude": "2.3585030000",
    "latitude": "48.8586450000",
    "address": " 61 rue Vieille du Temple"
}, {
    "url": "http://invader.spotter.free.fr/images/PA_0035-grosplan.png",
    "name": "PA_0035",
    "longitude": "2.3617490000",
    "latitude": "48.8572170000",
    "address": " 24 rue Pavée"
}, {
    "url": "http://invader.spotter.free.fr/images/PA_0036-grosplan.png",
    "name": "PA_0036",
    "longitude": "2.3733050000",
    "latitude": "48.8371910000",
    "address": " face au 7 boulevard Vincent Auriol"
}, {
    "url": "http://invader.spotter.free.fr/images/PA_0037-grosplan.png",
    "name": "PA_0037",
    "longitude": "2.3697630000",
    "latitude": "48.8555700000",
    "address": " 8 rue du Pasteur Wagner"
}, {
    "url": "http://invader.spotter.free.fr/images/PA_0038-grosplan.png",
    "name": "PA_0038",
    "longitude": "2.3749370000",
    "latitude": "48.8532030000",
    "address": " 1 passage Thérié"
}, {
    "url": "http://invader.spotter.free.fr/images/PA_0039-grosplan.png",
    "name": "PA_0039",
    "longitude": "2.3465970000",
    "latitude": "48.8483250000",
    "address": " 2 rue d'Écosse"
}, {
    "url": "http://invader.spotter.free.fr/images/PA_0040-grosplan.png",
    "name": "PA_0040",
    "longitude": "2.3481680452",
    "latitude": "48.8471446920",
    "address": " 45 rue de la Montagne Sainte-Geneviève"
}, {
    "url": "http://invader.spotter.free.fr/images/PA_0041-grosplan.png",
    "name": "PA_0041",
    "longitude": "2.3860050000",
    "latitude": "48.8976800000",
    "address": " Porte de la Villette"
}, {
    "url": "http://invader.spotter.free.fr/images/PA_0043-grosplan.png",
    "name": "PA_0043",
    "longitude": "2.3426800000",
    "latitude": "48.8537000000",
    "address": " 26 rue de l'Hirondelle"
}, {
    "url": "http://invader.spotter.free.fr/images/PA_0044-grosplan.png",
    "name": "PA_0044",
    "longitude": "2.3384892940",
    "latitude": "48.8535727070",
    "address": " 2 rue de l'Ancienne Comédie"
}, {
    "url": "http://invader.spotter.free.fr/images/PA_0046-grosplan.png",
    "name": "PA_0046",
    "longitude": "2.3391780000",
    "latitude": "48.8522670000",
    "address": " statue de Danton"
}, {
    "url": "http://invader.spotter.free.fr/images/PA_0047-grosplan.png",
    "name": "PA_0047",
    "longitude": "2.3779600000",
    "latitude": "48.8516000000",
    "address": " 4bis passage de la Main d'Or"
}, {
    "url": "http://invader.spotter.free.fr/images/PA_0048-grosplan.png",
    "name": "PA_0048",
    "longitude": "2.3693000000",
    "latitude": "48.8558600000",
    "address": " 10 rue Amelot"
}, {
    "url": "http://invader.spotter.free.fr/images/PA_0049-grosplan.png",
    "name": "PA_0049",
    "longitude": "2.3783790000",
    "latitude": "48.8659570000",
    "address": " 117 rue Oberkampf"
}, {
    "url": "http://invader.spotter.free.fr/images/PA_0051-grosplan.png",
    "name": "PA_0051",
    "longitude": "2.3744000000",
    "latitude": "48.8528400000",
    "address": " 13 rue de Charonne"
}, {
    "url": "http://invader.spotter.free.fr/images/PA_0053-grosplan.png",
    "name": "PA_0053",
    "longitude": "2.3723670000",
    "latitude": "48.8369080000",
    "address": " face au 16 boulevard Vincent Auriol"
}, {
    "url": "http://invader.spotter.free.fr/images/PA_0055-grosplan.png",
    "name": "PA_0055",
    "longitude": "2.3528810000",
    "latitude": "48.8277650000",
    "address": " 43 rue du Moulin des Prés"
}, {
    "url": "http://invader.spotter.free.fr/images/PA_0056-grosplan.png",
    "name": "PA_0056",
    "longitude": "2.3516040000",
    "latitude": "48.8287240000",
    "address": " 10 rue Simonet"
}, {
    "url": "http://invader.spotter.free.fr/images/PA_0058-grosplan.png",
    "name": "PA_0058",
    "longitude": "2.3706420000",
    "latitude": "48.8334430000",
    "address": " 14 rue Louise Weiss"
}, {
    "url": "http://invader.spotter.free.fr/images/PA_0059-grosplan.png",
    "name": "PA_0059",
    "longitude": "2.2846360000",
    "latitude": "48.8443210000",
    "address": " 1 rue Lacordaire"
}, {
    "url": "http://invader.spotter.free.fr/images/PA_0060-grosplan.png",
    "name": "PA_0060",
    "longitude": "2.3444860000",
    "latitude": "48.8636100000",
    "address": " église Saint-Eustache"
}, {
    "url": "http://invader.spotter.free.fr/images/PA_0061-grosplan.png",
    "name": "PA_0061",
    "longitude": "2.3472590000",
    "latitude": "48.8663620000",
    "address": " 2 rue des Petits Carreaux"
}, {
    "url": "http://invader.spotter.free.fr/images/PA_0062-grosplan.png",
    "name": "PA_0062",
    "longitude": "2.3454563319",
    "latitude": "48.8676952900",
    "address": " 99 rue de Réaumur"
}, {
    "url": "http://invader.spotter.free.fr/images/PA_0063-grosplan.png",
    "name": "PA_0063",
    "longitude": "2.3798630000",
    "latitude": "48.8534210000",
    "address": " 74 rue de Charonne"
}, {
    "url": "http://invader.spotter.free.fr/images/PA_0064-grosplan.png",
    "name": "PA_0064",
    "longitude": "2.2973970000",
    "latitude": "48.8647660000",
    "address": " devant le Musée d'Art Moderne"
}, {
    "url": "http://invader.spotter.free.fr/images/PA_0065-grosplan.png",
    "name": "PA_0065",
    "longitude": "2.3739140000",
    "latitude": "48.8530920000",
    "address": " 30 rue de Lappe"
}, {
    "url": "http://invader.spotter.free.fr/images/PA_0066-grosplan.png",
    "name": "PA_0066",
    "longitude": "2.3380700000",
    "latitude": "48.8856390000",
    "address": " PA_0067 & PA_0068"
}, {
    "url": "http://invader.spotter.free.fr/images/PA_0069-grosplan.png",
    "name": "PA_0069",
    "longitude": "2.3541710000",
    "latitude": "48.8346560000",
    "address": " 40 rue du Banquier"
}, {
    "url": "http://invader.spotter.free.fr/images/PA_0070-grosplan.png",
    "name": "PA_0070",
    "longitude": "2.3554650000",
    "latitude": "48.8568290000",
    "address": " 1 rue de la Verrerie"
}, {
    "url": "http://invader.spotter.free.fr/images/PA_0071-grosplan.png",
    "name": "PA_0071",
    "longitude": "2.3590200000",
    "latitude": "48.8548020000",
    "address": " 5 rue de Fourcy"
}, {
    "url": "http://invader.spotter.free.fr/images/PA_0072-grosplan.png",
    "name": "PA_0072",
    "longitude": "2.3674866557",
    "latitude": "48.8616003890",
    "address": " rue Charles Luizet"
}, {
    "url": "http://invader.spotter.free.fr/images/PA_0073-grosplan.png",
    "name": "PA_0073",
    "longitude": "2.3793760000",
    "latitude": "48.8684000000",
    "address": " 93 rue Jean-Pierre Timbaud"
}, {
    "url": "http://invader.spotter.free.fr/images/PA_0075-grosplan.png",
    "name": "PA_0075",
    "longitude": "2.3324660000",
    "latitude": "48.8342950000",
    "address": " sur le piédestal du lion"
}, {
    "url": "http://invader.spotter.free.fr/images/PA_0076-grosplan.png",
    "name": "PA_0076",
    "longitude": "2.3570130000",
    "latitude": "48.8383300000",
    "address": " statue de Jeanne \"au secours\" d'Arc"
}, {
    "url": "http://invader.spotter.free.fr/images/PA_0077-grosplan.png",
    "name": "PA_0077",
    "longitude": "2.3314390000",
    "latitude": "48.8471330000",
    "address": " 10 rue de Fleurus"
}, {
    "url": "http://invader.spotter.free.fr/images/PA_0078-grosplan.png",
    "name": "PA_0078",
    "longitude": "2.3528850000",
    "latitude": "48.8289530000",
    "address": " 21 passage du Moulin des Prés"
}, {
    "url": "http://invader.spotter.free.fr/images/PA_0079-grosplan.png",
    "name": "PA_0079",
    "longitude": "2.3514600000",
    "latitude": "48.8278800000",
    "address": " 5 rue Chéreau"
}, {
    "url": "http://invader.spotter.free.fr/images/PA_0080-grosplan.png",
    "name": "PA_0080",
    "longitude": "2.3308890000",
    "latitude": "48.8816280000",
    "address": " 5 rue Ballu"
}, {
    "url": "http://invader.spotter.free.fr/images/PA_0082-grosplan.png",
    "name": "PA_0082",
    "longitude": "2.4085960000",
    "latitude": "48.8468920000",
    "address": " pasage de la Voûte"
}, {
    "url": "http://invader.spotter.free.fr/images/PA_0083-grosplan.png",
    "name": "PA_0083",
    "longitude": "2.3645550012",
    "latitude": "48.8645524310",
    "address": " fontaine Boucherat"
}, {
    "url": "http://invader.spotter.free.fr/images/PA_0084-grosplan.png",
    "name": "PA_0084",
    "longitude": "2.3666770000",
    "latitude": "48.8560070000",
    "address": " 15 rue du Pas de la Mule"
}, {
    "url": "http://invader.spotter.free.fr/images/PA_0085-grosplan.png",
    "name": "PA_0085",
    "longitude": "2.3781920000",
    "latitude": "48.8531940000",
    "address": " 58 rue de Charonne"
}, {
    "url": "http://invader.spotter.free.fr/images/PA_0086-grosplan.png",
    "name": "PA_0086",
    "longitude": "2.3602040000",
    "latitude": "48.8505630000",
    "address": " pont de Sully"
}, {
    "url": "http://invader.spotter.free.fr/images/PA_0087-grosplan.png",
    "name": "PA_0087",
    "longitude": "2.3741620000",
    "latitude": "48.8373940000",
    "address": " escalier du port de la Gare"
}, {
    "url": "http://invader.spotter.free.fr/images/PA_0088-grosplan.png",
    "name": "PA_0088",
    "longitude": "2.3351680000",
    "latitude": "48.8626660000",
    "address": " sortie nord du Carrousel"
}, {
    "url": "http://invader.spotter.free.fr/images/PA_0089-grosplan.png",
    "name": "PA_0089",
    "longitude": "2.3464830000",
    "latitude": "48.8627510000",
    "address": " 1 rue Baltard"
}, {
    "url": "http://invader.spotter.free.fr/images/PA_0090-grosplan.png",
    "name": "PA_0090",
    "longitude": "2.3489900000",
    "latitude": "48.8637200000",
    "address": " métro Etienne Marcel"
}, {
    "url": "http://invader.spotter.free.fr/images/PA_0092-grosplan.png",
    "name": "PA_0092",
    "longitude": "2.3473834991",
    "latitude": "48.8603104700",
    "address": " 8 rue de la Ferronnerie"
}, {
    "url": "http://invader.spotter.free.fr/images/PA_0093-grosplan.png",
    "name": "PA_0093",
    "longitude": "2.3334810000",
    "latitude": "48.8598320000",
    "address": " pont du Carroussel"
}, {
    "url": "http://invader.spotter.free.fr/images/PA_0094-grosplan.png",
    "name": "PA_0094",
    "longitude": "2.3326300000",
    "latitude": "48.8470400000",
    "address": " porte Fleurus du jardin du Luxembourg"
}, {
    "url": "http://invader.spotter.free.fr/images/PA_0095-grosplan.png",
    "name": "PA_0095",
    "longitude": "2.3376160000",
    "latitude": "48.8672420000",
    "address": " 65 rue Richelieu"
}, {
    "url": "http://invader.spotter.free.fr/images/PA_0097-grosplan.png",
    "name": "PA_0097",
    "longitude": "2.3890050000",
    "latitude": "48.8394400000",
    "address": " 205 rue de Charenton"
}, {
    "url": "http://invader.spotter.free.fr/images/PA_0098-grosplan.png",
    "name": "PA_0098",
    "longitude": "2.3437020000",
    "latitude": "48.8531920000",
    "address": " sur la fontaine Saint-Michel"
}, {
    "url": "http://invader.spotter.free.fr/images/PA_0102-grosplan.png",
    "name": "PA_0102",
    "longitude": "2.3619750000",
    "latitude": "48.8399070000",
    "address": " 42 boulevard de l'Hôpital"
}, {
    "url": "http://invader.spotter.free.fr/images/PA_0103-grosplan.png",
    "name": "PA_0103",
    "longitude": "2.3540450000",
    "latitude": "48.8592530000",
    "address": " 30 rue du Temple"
}, {
    "url": "http://invader.spotter.free.fr/images/PA_0105-grosplan.png",
    "name": "PA_0105",
    "longitude": "2.3638000000",
    "latitude": "48.8674400000",
    "address": " à droite du lion de la statue"
}, {
    "url": "http://invader.spotter.free.fr/images/PA_0106-grosplan.png",
    "name": "PA_0106",
    "longitude": "2.3618888854",
    "latitude": "48.8539009000",
    "address": " 2 rue Charlemagne"
}, {
    "url": "http://invader.spotter.free.fr/images/PA_0109-grosplan.png",
    "name": "PA_0109",
    "longitude": "2.3525340000",
    "latitude": "48.8597640000",
    "address": " tuyau d'évacuation du Centre Pompidou"
}, {
    "url": "http://invader.spotter.free.fr/images/PA_0110-grosplan.png",
    "name": "PA_0110",
    "longitude": "2.3512500000",
    "latitude": "48.8626300000",
    "address": " 91 rue Quincampoix"
}, {
    "url": "http://invader.spotter.free.fr/images/PA_0111-grosplan.png",
    "name": "PA_0111",
    "longitude": "2.3446510000",
    "latitude": "48.8915950000",
    "address": " 20 rue Hermel"
}, {
    "url": "http://invader.spotter.free.fr/images/PA_0112-grosplan.png",
    "name": "PA_0112",
    "longitude": "2.3269430000",
    "latitude": "48.8350000000",
    "address": " 19 rue Gassendi"
}, {
    "url": "http://invader.spotter.free.fr/images/PA_0113-grosplan.png",
    "name": "PA_0113",
    "longitude": "2.3514230000",
    "latitude": "48.8465960000",
    "address": " 46 rue du Cardinal Lemoine"
}, {
    "url": "http://invader.spotter.free.fr/images/PA_0114-grosplan.png",
    "name": "PA_0114",
    "longitude": "2.3572750000",
    "latitude": "48.8571530000",
    "address": " 26 rue Vieille du Temple"
}, {
    "url": "http://invader.spotter.free.fr/images/PA_0115-grosplan.png",
    "name": "PA_0115",
    "longitude": "2.3596390000",
    "latitude": "48.8585720000",
    "address": " impasse des Arbalétriers"
}, {
    "url": "http://invader.spotter.free.fr/images/PA_0116-grosplan.png",
    "name": "PA_0116",
    "longitude": "2.3727640000",
    "latitude": "48.8547190000",
    "address": " 45 passage Thiéré"
}, {
    "url": "http://invader.spotter.free.fr/images/PA_0117-grosplan.png",
    "name": "PA_0117",
    "longitude": "2.3731130000",
    "latitude": "48.8544140000",
    "address": " 31 passage Thiéré sur le trottoir"
}, {
    "url": "http://invader.spotter.free.fr/images/PA_0118-grosplan.png",
    "name": "PA_0118",
    "longitude": "2.3753470000",
    "latitude": "48.8355760000",
    "address": " 1 rue Raymond Ayron"
}, {
    "url": "http://invader.spotter.free.fr/images/PA_0119-grosplan.png",
    "name": "PA_0119",
    "longitude": "2.4027890000",
    "latitude": "48.8594260000",
    "address": " 102 rue de Bagnolet"
}, {
    "url": "http://invader.spotter.free.fr/images/PA_0120-grosplan.png",
    "name": "PA_0120",
    "longitude": "2.3672280000",
    "latitude": "48.8694740000",
    "address": " 44 quai de Jemmapes"
}, {
    "url": "http://invader.spotter.free.fr/images/PA_0121-grosplan.png",
    "name": "PA_0121",
    "longitude": "2.3327970000",
    "latitude": "48.8576290000",
    "address": " 7 rue des Saints-Pères"
}, {
    "url": "http://invader.spotter.free.fr/images/PA_0122-grosplan.png",
    "name": "PA_0122",
    "longitude": "2.3531320000",
    "latitude": "48.8404870000",
    "address": " rue de la Clef"
}, {
    "url": "http://invader.spotter.free.fr/images/PA_0124-grosplan.png",
    "name": "PA_0124",
    "longitude": "2.3243850000",
    "latitude": "48.8733560000",
    "address": " 40 rue de l'Arcade"
}, {
    "url": "http://invader.spotter.free.fr/images/PA_0125-grosplan.png",
    "name": "PA_0125",
    "longitude": "2.3958100000",
    "latitude": "48.8395400000",
    "address": " sud de la Fontaine aux Lions"
}, {
    "url": "http://invader.spotter.free.fr/images/PA_0126-grosplan.png",
    "name": "PA_0126",
    "longitude": "2.2926810000",
    "latitude": "48.8592220000",
    "address": " pont d'Iéna (rive gauche)"
}, {
    "url": "http://invader.spotter.free.fr/images/PA_0128-grosplan.png",
    "name": "PA_0128",
    "longitude": "2.3737600000",
    "latitude": "48.8520000000",
    "address": " 1 rue de Charonne"
}, {
    "url": "http://invader.spotter.free.fr/images/PA_0131-grosplan.png",
    "name": "PA_0131",
    "longitude": "2.4031520000",
    "latitude": "48.8564880000",
    "address": " 53 rue des Orteaux"
}, {
    "url": "http://invader.spotter.free.fr/images/PA_0132-grosplan.png",
    "name": "PA_0132",
    "longitude": "2.4055410000",
    "latitude": "48.8562550000",
    "address": " 97 rue des Maraîchers"
}, {
    "url": "http://invader.spotter.free.fr/images/PA_0133-grosplan.png",
    "name": "PA_0133",
    "longitude": "2.3779000000",
    "latitude": "48.8516740000",
    "address": " 7 passage de la Main d'Or"
}, {
    "url": "http://invader.spotter.free.fr/images/PA_0143-grosplan.png",
    "name": "PA_0143",
    "longitude": "2.3472332954",
    "latitude": "48.8573740600",
    "address": " place du Châtelet"
}, {
    "url": "http://invader.spotter.free.fr/images/PA_0144-grosplan.png",
    "name": "PA_0144",
    "longitude": "2.3507800000",
    "latitude": "48.8601400000",
    "address": " face au 49 rue Saint-Merri"
}, {
    "url": "http://invader.spotter.free.fr/images/PA_0145-grosplan.png",
    "name": "PA_0145",
    "longitude": "2.3530090000",
    "latitude": "48.8593000000",
    "address": " 9 rue Saint-Merri"
}, {
    "url": "http://invader.spotter.free.fr/images/PA_0146-grosplan.png",
    "name": "PA_0146",
    "longitude": "2.3554380000",
    "latitude": "48.8342340000",
    "address": " 2 rue Véronèse"
}, {
    "url": "http://invader.spotter.free.fr/images/PA_0147-grosplan.png",
    "name": "PA_0147",
    "longitude": "2.3658520000",
    "latitude": "48.8428480000",
    "address": " gare d'Austerlitz"
}, {
    "url": "http://invader.spotter.free.fr/images/PA_0148-grosplan.png",
    "name": "PA_0148",
    "longitude": "2.3506300000",
    "latitude": "48.8559300000",
    "address": " sur le pont d'Arcole"
}, {
    "url": "http://invader.spotter.free.fr/images/PA_0149-grosplan.png",
    "name": "PA_0149",
    "longitude": "2.3629110000",
    "latitude": "48.8547170000",
    "address": " 1 rue de Turenne"
}, {
    "url": "http://invader.spotter.free.fr/images/PA_0150-grosplan.png",
    "name": "PA_0150",
    "longitude": "2.3435800000",
    "latitude": "48.8474500000",
    "address": " angle de la Sorbonne"
}, {
    "url": "http://invader.spotter.free.fr/images/PA_0151-grosplan.png",
    "name": "PA_0151",
    "longitude": "2.3467840000",
    "latitude": "48.8430510000",
    "address": " 28 rue Lhomond"
}, {
    "url": "http://invader.spotter.free.fr/images/PA_0152-grosplan.png",
    "name": "PA_0152",
    "longitude": "2.3233374900",
    "latitude": "48.8661898300",
    "address": " place de la Concorde"
}, {
    "url": "http://invader.spotter.free.fr/images/PA_0154-grosplan.png",
    "name": "PA_0154",
    "longitude": "2.4009530000",
    "latitude": "48.8417340000",
    "address": " métro de Bel-Air"
}, {
    "url": "http://invader.spotter.free.fr/images/PA_0155-grosplan.png",
    "name": "PA_0155",
    "longitude": "2.3482570000",
    "latitude": "48.8513750000",
    "address": " 16 rue des Trois Portes"
}, {
    "url": "http://invader.spotter.free.fr/images/PA_0156-grosplan.png",
    "name": "PA_0156",
    "longitude": "2.3542990000",
    "latitude": "48.8599100000",
    "address": " 2 rue Simon le Franc"
}, {
    "url": "http://invader.spotter.free.fr/images/PA_0157-grosplan.png",
    "name": "PA_0157",
    "longitude": "2.3489760000",
    "latitude": "48.8462420000",
    "address": " 10 rue Clovis"
}, {
    "url": "http://invader.spotter.free.fr/images/PA_0158-grosplan.png",
    "name": "PA_0158",
    "longitude": "2.3637220000",
    "latitude": "48.8607000000",
    "address": " 7 rue Debelleyme."
}, {
    "url": "http://invader.spotter.free.fr/images/PA_0159-grosplan.png",
    "name": "PA_0159",
    "longitude": "2.3510350000",
    "latitude": "48.8760250000",
    "address": " 69 rue d'Hauteville"
}, {
    "url": "http://invader.spotter.free.fr/images/PA_0160-grosplan.png",
    "name": "PA_0160",
    "longitude": "2.3406770000",
    "latitude": "48.8853740000",
    "address": " 16 rue André Barsacq"
}, {
    "url": "http://invader.spotter.free.fr/images/PA_0161-grosplan.png",
    "name": "PA_0161",
    "longitude": "2.3396650000",
    "latitude": "48.8841630000",
    "address": " 17 rue Yvonne Le Tac"
}, {
    "url": "http://invader.spotter.free.fr/images/PA_0162-grosplan.png",
    "name": "PA_0162",
    "longitude": "2.3705590000",
    "latitude": "48.8846170000",
    "address": " 8 quai de la Seine"
}, {
    "url": "http://invader.spotter.free.fr/images/PA_0163-grosplan.png",
    "name": "PA_0163",
    "longitude": "2.3435500000",
    "latitude": "48.8469100000",
    "address": " 133 rue Saint-Jacques"
}, {
    "url": "http://invader.spotter.free.fr/images/PA_0165-grosplan.png",
    "name": "PA_0165",
    "longitude": "2.3405670000",
    "latitude": "48.8876470000",
    "address": " 5 rue Cortot"
}, {
    "url": "http://invader.spotter.free.fr/images/PA_0166-grosplan.png",
    "name": "PA_0166",
    "longitude": "2.3853099346",
    "latitude": "48.8852982720",
    "address": " face au 21 rue Georges Auric"
}, {
    "url": "http://invader.spotter.free.fr/images/PA_0167-grosplan.png",
    "name": "PA_0167",
    "longitude": "2.3366740000",
    "latitude": "48.8655230000",
    "address": " 37 rue Richelieu"
}, {
    "url": "http://invader.spotter.free.fr/images/PA_0169-grosplan.png",
    "name": "PA_0169",
    "longitude": "2.3414690000",
    "latitude": "48.8863550000",
    "address": " 2 rue du Mont Cenis"
}, {
    "url": "http://invader.spotter.free.fr/images/PA_0172-grosplan.png",
    "name": "PA_0172",
    "longitude": "2.3318000000",
    "latitude": "48.8911900000",
    "address": " 21 rue Carpeaux"
}, {
    "url": "http://invader.spotter.free.fr/images/PA_0175-grosplan.png",
    "name": "PA_0175",
    "longitude": "2.3735520000",
    "latitude": "48.8515990000",
    "address": " 18 passage du Chantier"
}, {
    "url": "http://invader.spotter.free.fr/images/PA_0176-grosplan.png",
    "name": "PA_0176",
    "longitude": "2.3307700000",
    "latitude": "48.8499610000",
    "address": " 12 rue Cassette"
}, {
    "url": "http://invader.spotter.free.fr/images/PA_0177-grosplan.png",
    "name": "PA_0177",
    "longitude": "2.3308101296",
    "latitude": "48.8653729010",
    "address": " 12 rue du 29 Juillet"
}, {
    "url": "http://invader.spotter.free.fr/images/PA_0178-grosplan.png",
    "name": "PA_0178",
    "longitude": "2.3059260000",
    "latitude": "48.8747020000",
    "address": " 165 rue du Faubourg Saint-Honoré"
}, {
    "url": "http://invader.spotter.free.fr/images/PA_0179-grosplan.png",
    "name": "PA_0179",
    "longitude": "2.5072100000",
    "latitude": "48.8272500000",
    "address": " entrée du tunnel de Champigny"
}, {
    "url": "http://invader.spotter.free.fr/images/PA_0180-grosplan.png",
    "name": "PA_0180",
    "longitude": "2.3319250000",
    "latitude": "48.8510630000",
    "address": " 14 rue Madame"
}, {
    "url": "http://invader.spotter.free.fr/images/PA_0181-grosplan.png",
    "name": "PA_0181",
    "longitude": "2.3317680000",
    "latitude": "48.8506450000",
    "address": " 20-24 rue Madame"
}, {
    "url": "http://invader.spotter.free.fr/images/PA_0182-grosplan.png",
    "name": "PA_0182",
    "longitude": "2.3319180000",
    "latitude": "48.8509620000",
    "address": " 18 rue Madame"
}, {
    "url": "http://invader.spotter.free.fr/images/PA_0183-grosplan.png",
    "name": "PA_0183",
    "longitude": "2.3318850000",
    "latitude": "48.8503500000",
    "address": " 19 rue de Mézières"
}, {
    "url": "http://invader.spotter.free.fr/images/PA_0184-grosplan.png",
    "name": "PA_0184",
    "longitude": "2.3417370000",
    "latitude": "48.8523260000",
    "address": " 2 rue Mignon"
}, {
    "url": "http://invader.spotter.free.fr/images/PA_0185-grosplan.png",
    "name": "PA_0185",
    "longitude": "2.3311700000",
    "latitude": "48.8726420000",
    "address": " 8 rue Scribe"
}, {
    "url": "http://invader.spotter.free.fr/images/PA_0187-grosplan.png",
    "name": "PA_0187",
    "longitude": "2.3547110000",
    "latitude": "48.8463660000",
    "address": " fontaine Jussieu"
}, {
    "url": "http://invader.spotter.free.fr/images/PA_0188-grosplan.png",
    "name": "PA_0188",
    "longitude": "2.3601800000",
    "latitude": "48.8578800000",
    "address": " 39 rue des Francs-Bourgeois"
}, {
    "url": "http://invader.spotter.free.fr/images/PA_0189-grosplan.png",
    "name": "PA_0189",
    "longitude": "2.3545320000",
    "latitude": "48.8605150000",
    "address": " 3 rue Geoffroy Langevin"
}, {
    "url": "http://invader.spotter.free.fr/images/PA_0190-grosplan.png",
    "name": "PA_0190",
    "longitude": "2.4037040000",
    "latitude": "48.8602080000",
    "address": " 1 rue Stendhal"
}, {
    "url": "http://invader.spotter.free.fr/images/PA_0191-grosplan.png",
    "name": "PA_0191",
    "longitude": "2.4029050000",
    "latitude": "48.8606800000",
    "address": " 21 chemin du Parc de Charonne"
}, {
    "url": "http://invader.spotter.free.fr/images/PA_0192-grosplan.png",
    "name": "PA_0192",
    "longitude": "2.4049650000",
    "latitude": "48.8609740000",
    "address": " face au 130 rue de Bagnolet"
}, {
    "url": "http://invader.spotter.free.fr/images/PA_0193-grosplan.png",
    "name": "PA_0193",
    "longitude": "2.3564720000",
    "latitude": "48.8652940000",
    "address": " 29 rue de Réaumur"
}, {
    "url": "http://invader.spotter.free.fr/images/PA_0194-grosplan.png",
    "name": "PA_0194",
    "longitude": "2.3774480000",
    "latitude": "48.8599930000",
    "address": " 61 rue du Chemin Vert"
}, {
    "url": "http://invader.spotter.free.fr/images/PA_0195-grosplan.png",
    "name": "PA_0195",
    "longitude": "2.3448190000",
    "latitude": "48.9008210000",
    "address": " avenue de la porte Clignancourt"
}, {
    "url": "http://invader.spotter.free.fr/images/PA_0196-grosplan.png",
    "name": "PA_0196",
    "longitude": "2.3688950000",
    "latitude": "48.8837030000",
    "address": " place de la Bataille de Stalingrad"
}, {
    "url": "http://invader.spotter.free.fr/images/PA_0197-grosplan.png",
    "name": "PA_0197",
    "longitude": "2.3323800000",
    "latitude": "48.8865590000",
    "address": " cimetière de Montmartre"
}, {
    "url": "http://invader.spotter.free.fr/images/PA_0198-grosplan.png",
    "name": "PA_0198",
    "longitude": "2.3726110000",
    "latitude": "48.8743050000",
    "address": " 27 rue Sainte-Marthe"
}, {
    "url": "http://invader.spotter.free.fr/images/PA_0200-grosplan.png",
    "name": "PA_0200",
    "longitude": "2.3723800000",
    "latitude": "48.8445060000",
    "address": " face au 194 rue de Bercy"
}, {
    "url": "http://invader.spotter.free.fr/images/PA_0201-grosplan.png",
    "name": "PA_0201",
    "longitude": "2.3768200000",
    "latitude": "48.8780100000",
    "address": " 19 rue Georges Lardennois"
}, {
    "url": "http://invader.spotter.free.fr/images/PA_0205-grosplan.png",
    "name": "PA_0205",
    "longitude": "2.3516800000",
    "latitude": "48.8780730000",
    "address": " parvis de Saint-Vincent-de-Paul"
}, {
    "url": "http://invader.spotter.free.fr/images/PA_0206-grosplan.png",
    "name": "PA_0206",
    "longitude": "2.3274280000",
    "latitude": "48.8835080000",
    "address": " place de Clichy"
}, {
    "url": "http://invader.spotter.free.fr/images/PA_0207-grosplan.png",
    "name": "PA_0207",
    "longitude": "2.3325763642",
    "latitude": "48.8877207050",
    "address": " 7 rue Damrémont"
}, {
    "url": "http://invader.spotter.free.fr/images/PA_0208-grosplan.png",
    "name": "PA_0208",
    "longitude": "2.3314910000",
    "latitude": "48.8374280000",
    "address": " métro Raspail"
}, {
    "url": "http://invader.spotter.free.fr/images/PA_0209-grosplan.png",
    "name": "PA_0209",
    "longitude": "2.3793870000",
    "latitude": "48.8333510000",
    "address": " sur la coque du Batofar"
}, {
    "url": "http://invader.spotter.free.fr/images/PA_0211-grosplan.png",
    "name": "PA_0211",
    "longitude": "2.3716070000",
    "latitude": "48.8524410000",
    "address": " 30 rue du Faubourg Saint-Antoine"
}, {
    "url": "http://invader.spotter.free.fr/images/PA_0212-grosplan.png",
    "name": "PA_0212",
    "longitude": "2.3930500000",
    "latitude": "48.8570500000",
    "address": " 123 boulevard de Charonne"
}, {
    "url": "http://invader.spotter.free.fr/images/PA_0213-grosplan.png",
    "name": "PA_0213",
    "longitude": "2.3496830000",
    "latitude": "48.8420990000",
    "address": " 84 rue Mouffetard"
}, {
    "url": "http://invader.spotter.free.fr/images/PA_0215-grosplan.png",
    "name": "PA_0215",
    "longitude": "2.3861570000",
    "latitude": "48.8425920000",
    "address": " 0 rue Montgallet"
}, {
    "url": "http://invader.spotter.free.fr/images/PA_0216-grosplan.png",
    "name": "PA_0216",
    "longitude": "2.3424670100",
    "latitude": "48.8215718400",
    "address": " 67 rue de l'Amiral Mouchez"
}, {
    "url": "http://invader.spotter.free.fr/images/PA_0218-grosplan.png",
    "name": "PA_0218",
    "longitude": "2.3720400000",
    "latitude": "48.8442300000",
    "address": " Tunnel Van-Gogh"
}, {
    "url": "http://invader.spotter.free.fr/images/PA_0219-grosplan.png",
    "name": "PA_0219",
    "longitude": "2.3736700000",
    "latitude": "48.8195700000",
    "address": " face au 8 rue André Voguet"
}, {
    "url": "http://invader.spotter.free.fr/images/PA_0220-grosplan.png",
    "name": "PA_0220",
    "longitude": "2.3735230000",
    "latitude": "48.8373960000",
    "address": " métro Quai de la Gare"
}, {
    "url": "http://invader.spotter.free.fr/images/PA_0221-grosplan.png",
    "name": "PA_0221",
    "longitude": "2.3829380000",
    "latitude": "48.8737960000",
    "address": " 91 rue Rebeval"
}, {
    "url": "http://invader.spotter.free.fr/images/PA_0222-grosplan.png",
    "name": "PA_0222",
    "longitude": "2.3744270000",
    "latitude": "48.8711090000",
    "address": " 94 rue du Faubourg du Temple"
}, {
    "url": "http://invader.spotter.free.fr/images/PA_0223-grosplan.png",
    "name": "PA_0223",
    "longitude": "2.3760690000",
    "latitude": "48.8482170000",
    "address": " 20 rue Abel"
}, {
    "url": "http://invader.spotter.free.fr/images/PA_0224-grosplan.png",
    "name": "PA_0224",
    "longitude": "2.3736070000",
    "latitude": "48.8198740000",
    "address": " sur les panneaux d'information du périph'"
}, {
    "url": "http://invader.spotter.free.fr/images/PA_0225-grosplan.png",
    "name": "PA_0225",
    "longitude": "2.3730150000",
    "latitude": "48.8194530000",
    "address": " sur le pont du periph' porte d'Ivry"
}, {
    "url": "http://invader.spotter.free.fr/images/PA_0226-grosplan.png",
    "name": "PA_0226",
    "longitude": "2.3511734604",
    "latitude": "48.8767487110",
    "address": " 83 rue d'Hauteville"
}, {
    "url": "http://invader.spotter.free.fr/images/PA_0227-grosplan.png",
    "name": "PA_0227",
    "longitude": "2.3530330000",
    "latitude": "48.8741500000",
    "address": " PA_0227"
}, {
    "url": "http://invader.spotter.free.fr/images/PA_0228-grosplan.png",
    "name": "PA_0228",
    "longitude": "2.3829500000",
    "latitude": "48.8899100000",
    "address": " pont de la rue de l'Ourcq"
}, {
    "url": "http://invader.spotter.free.fr/images/PA_0229-grosplan.png",
    "name": "PA_0229",
    "longitude": "2.3396810000",
    "latitude": "48.8510270000",
    "address": " rue Antoine Dubois"
}, {
    "url": "http://invader.spotter.free.fr/images/PA_0231-grosplan.png",
    "name": "PA_0231",
    "longitude": "2.3499050000",
    "latitude": "48.8643220000",
    "address": " 1 rue Tiquetonne"
}, {
    "url": "http://invader.spotter.free.fr/images/PA_0232-grosplan.png",
    "name": "PA_0232",
    "longitude": "2.3476720000",
    "latitude": "48.8645430000",
    "address": " 11 rue Française"
}, {
    "url": "http://invader.spotter.free.fr/images/PA_0233-grosplan.png",
    "name": "PA_0233",
    "longitude": "2.2763310000",
    "latitude": "48.8444560000",
    "address": " 1 rue des Cévennes"
}, {
    "url": "http://invader.spotter.free.fr/images/PA_0236-grosplan.png",
    "name": "PA_0236",
    "longitude": "2.2996400000",
    "latitude": "48.8709500000",
    "address": " 16 rue Magellan"
}, {
    "url": "http://invader.spotter.free.fr/images/PA_0237-grosplan.png",
    "name": "PA_0237",
    "longitude": "2.2970740000",
    "latitude": "48.8734330000",
    "address": " 156 avenue des Champs Élysées"
}, {
    "url": "http://invader.spotter.free.fr/images/PA_0238-grosplan.png",
    "name": "PA_0238",
    "longitude": "2.3075210000",
    "latitude": "48.8660540000",
    "address": " 8 rue François 1er"
}, {
    "url": "http://invader.spotter.free.fr/images/PA_0240-grosplan.png",
    "name": "PA_0240",
    "longitude": "2.3738680000",
    "latitude": "48.8457410000",
    "address": " face au 23 boulevard Diderot"
}, {
    "url": "http://invader.spotter.free.fr/images/PA_0241-grosplan.png",
    "name": "PA_0241",
    "longitude": "2.4008850000",
    "latitude": "48.8410060000",
    "address": " métro Bel-Air face sud"
}, {
    "url": "http://invader.spotter.free.fr/images/PA_0242-grosplan.png",
    "name": "PA_0242",
    "longitude": "2.4069320000",
    "latitude": "48.8444870000",
    "address": " 94-100 avenue Saint-Mandé"
}, {
    "url": "http://invader.spotter.free.fr/images/PA_0243-grosplan.png",
    "name": "PA_0243",
    "longitude": "2.3751170000",
    "latitude": "48.8468190000",
    "address": " 8bis rue Abel"
}, {
    "url": "http://invader.spotter.free.fr/images/PA_0245-grosplan.png",
    "name": "PA_0245",
    "longitude": "2.3719760000",
    "latitude": "48.8646020000",
    "address": " 47 rue Oberkampf"
}, {
    "url": "http://invader.spotter.free.fr/images/PA_0247-grosplan.png",
    "name": "PA_0247",
    "longitude": "2.2895330000",
    "latitude": "48.8333490000",
    "address": " 1 rue Firmin Gillot"
}, {
    "url": "http://invader.spotter.free.fr/images/PA_0248-grosplan.png",
    "name": "PA_0248",
    "longitude": "2.3745160000",
    "latitude": "48.8682990000",
    "address": " 64 rue de la Fontaine au Roi"
}, {
    "url": "http://invader.spotter.free.fr/images/PA_0250-grosplan.png",
    "name": "PA_0250",
    "longitude": "2.3673552270",
    "latitude": "48.8688610700",
    "address": " entrée du mini-square de Jemmapes"
}, {
    "url": "http://invader.spotter.free.fr/images/PA_0251-grosplan.png",
    "name": "PA_0251",
    "longitude": "2.3480060000",
    "latitude": "48.8606680000",
    "address": " à l'ouest de la fontaine des Innocents"
}, {
    "url": "http://invader.spotter.free.fr/images/PA_0253-grosplan.png",
    "name": "PA_0253",
    "longitude": "2.3013870000",
    "latitude": "48.8640590000",
    "address": " pont de l'Alma côté rive droite"
}, {
    "url": "http://invader.spotter.free.fr/images/PA_0254-grosplan.png",
    "name": "PA_0254",
    "longitude": "2.3005410000",
    "latitude": "48.8718090000",
    "address": " 101 avenue des Champs-Élysées"
}, {
    "url": "http://invader.spotter.free.fr/images/PA_0255-grosplan.png",
    "name": "PA_0255",
    "longitude": "2.2913540000",
    "latitude": "48.8612970000",
    "address": " sous le banc face à l'arrêt de bus Varsovie"
}, {
    "url": "http://invader.spotter.free.fr/images/PA_0256-grosplan.png",
    "name": "PA_0256",
    "longitude": "2.2918050000",
    "latitude": "48.8608660000",
    "address": " place de Varsovie"
}, {
    "url": "http://invader.spotter.free.fr/images/PA_0257-grosplan.png",
    "name": "PA_0257",
    "longitude": "2.2857130000",
    "latitude": "48.8576960000",
    "address": " métro Passy"
}, {
    "url": "http://invader.spotter.free.fr/images/PA_0258-grosplan.png",
    "name": "PA_0258",
    "longitude": "2.2788080000",
    "latitude": "48.8544830000",
    "address": " 29 avenue de Lamballe"
}, {
    "url": "http://invader.spotter.free.fr/images/PA_0262-grosplan.png",
    "name": "PA_0262",
    "longitude": "2.3972850000",
    "latitude": "48.8480060000",
    "address": " place de la Nation (côté avenue du Trône)"
}, {
    "url": "http://invader.spotter.free.fr/images/PA_0263-grosplan.png",
    "name": "PA_0263",
    "longitude": "2.2856630000",
    "latitude": "48.8699500000",
    "address": " sur les marches du métro Victor Hugo"
}, {
    "url": "http://invader.spotter.free.fr/images/PA_0264-grosplan.png",
    "name": "PA_0264",
    "longitude": "2.2755140000",
    "latitude": "48.8629980000",
    "address": " 115 rue de la Tour"
}, {
    "url": "http://invader.spotter.free.fr/images/PA_0265-grosplan.png",
    "name": "PA_0265",
    "longitude": "2.2722690000",
    "latitude": "48.8629230000",
    "address": " face au 27 boulevard Jules Sandeau"
}, {
    "url": "http://invader.spotter.free.fr/images/PA_0266-grosplan.png",
    "name": "PA_0266",
    "longitude": "2.2956400000",
    "latitude": "48.8646490000",
    "address": " 11 rue de la Manutention"
}, {
    "url": "http://invader.spotter.free.fr/images/PA_0267-grosplan.png",
    "name": "PA_0267",
    "longitude": "2.2902350000",
    "latitude": "48.8641440000",
    "address": " 10 rue de Magdebourg"
}, {
    "url": "http://invader.spotter.free.fr/images/PA_0268-grosplan.png",
    "name": "PA_0268",
    "longitude": "2.3036070000",
    "latitude": "48.8790020000",
    "address": " 96 rue de Courcelles"
}, {
    "url": "http://invader.spotter.free.fr/images/PA_0269-grosplan.png",
    "name": "PA_0269",
    "longitude": "2.4554900000",
    "latitude": "48.8181660000",
    "address": " sur le Chasseur à pied de la Redoute de Gravelle"
}, {
    "url": "http://invader.spotter.free.fr/images/PA_0270-grosplan.png",
    "name": "PA_0270",
    "longitude": "2.3652400000",
    "latitude": "48.8681800000",
    "address": " 2 rue Yves Toudic"
}, {
    "url": "http://invader.spotter.free.fr/images/PA_0271-grosplan.png",
    "name": "PA_0271",
    "longitude": "2.3774770000",
    "latitude": "48.8691350000",
    "address": " 7 rue Vancouleurs"
}, {
    "url": "http://invader.spotter.free.fr/images/PA_0272-grosplan.png",
    "name": "PA_0272",
    "longitude": "2.3641640000",
    "latitude": "48.8268000000",
    "address": " 96 rue de Tolbiac"
}, {
    "url": "http://invader.spotter.free.fr/images/PA_0273-grosplan.png",
    "name": "PA_0273",
    "longitude": "2.3502150000",
    "latitude": "48.8603740000",
    "address": " 21 rue Aubry le Boucher"
}, {
    "url": "http://invader.spotter.free.fr/images/PA_0275-grosplan.png",
    "name": "PA_0275",
    "longitude": "2.3652260000",
    "latitude": "48.8794290000",
    "address": " 14 rue Pierre Dupont"
}, {
    "url": "http://invader.spotter.free.fr/images/PA_0277-grosplan.png",
    "name": "PA_0277",
    "longitude": "2.3758256435",
    "latitude": "48.8533362160",
    "address": " 31 rue de Charonne"
}, {
    "url": "http://invader.spotter.free.fr/images/PA_0278-grosplan.png",
    "name": "PA_0278",
    "longitude": "2.4065600000",
    "latitude": "48.8528700000",
    "address": " 53 rue des Maraîchers"
}, {
    "url": "http://invader.spotter.free.fr/images/PA_0279-grosplan.png",
    "name": "PA_0279",
    "longitude": "2.3761500000",
    "latitude": "48.8716300000",
    "address": " 116 rue du Faubourg du Temple"
}, {
    "url": "http://invader.spotter.free.fr/images/PA_0280-grosplan.png",
    "name": "PA_0280",
    "longitude": "2.3859760000",
    "latitude": "48.8638720000",
    "address": " 8 rue Spinoza"
}, {
    "url": "http://invader.spotter.free.fr/images/PA_0282-grosplan.png",
    "name": "PA_0282",
    "longitude": "2.3526730000",
    "latitude": "48.8580560000",
    "address": " 61 rue de la Verrerie"
}, {
    "url": "http://invader.spotter.free.fr/images/PA_0283-grosplan.png",
    "name": "PA_0283",
    "longitude": "2.3735500000",
    "latitude": "48.8708400000",
    "address": " 101 rue du Faubourg du Temple"
}, {
    "url": "http://invader.spotter.free.fr/images/PA_0285-grosplan.png",
    "name": "PA_0285",
    "longitude": "2.3460700000",
    "latitude": "48.8660300000",
    "address": " passage Ben Aiad"
}, {
    "url": "http://invader.spotter.free.fr/images/PA_0286-grosplan.png",
    "name": "PA_0286",
    "longitude": "2.3444450000",
    "latitude": "48.8875080000",
    "address": " 28 rue du Chevalier de la Barre"
}, {
    "url": "http://invader.spotter.free.fr/images/PA_0290-grosplan.png",
    "name": "PA_0290",
    "longitude": "2.3781497776",
    "latitude": "48.8658889970",
    "address": " 113 rue Oberkampf"
}, {
    "url": "http://invader.spotter.free.fr/images/PA_0291-grosplan.png",
    "name": "PA_0291",
    "longitude": "2.3901218175",
    "latitude": "48.8678677500",
    "address": " 15 rue des Plâtrières"
}, {
    "url": "http://invader.spotter.free.fr/images/PA_0293-grosplan.png",
    "name": "PA_0293",
    "longitude": "2.3733500000",
    "latitude": "48.8706640000",
    "address": " 84 rue du Faubourg du Temple"
}, {
    "url": "http://invader.spotter.free.fr/images/PA_0294-grosplan.png",
    "name": "PA_0294",
    "longitude": "2.3560700000",
    "latitude": "48.8582100000",
    "address": " 14 rue de Moussy"
}, {
    "url": "http://invader.spotter.free.fr/images/PA_0295-grosplan.png",
    "name": "PA_0295",
    "longitude": "2.3448219895",
    "latitude": "48.8637875280",
    "address": " 4 rue du Jour"
}, {
    "url": "http://invader.spotter.free.fr/images/PA_0301-grosplan.png",
    "name": "PA_0301",
    "longitude": "2.3734840000",
    "latitude": "48.8502610000",
    "address": " 44 rue de Charenton"
}, {
    "url": "http://invader.spotter.free.fr/images/PA_0302-grosplan.png",
    "name": "PA_0302",
    "longitude": "2.3898570000",
    "latitude": "48.8790660000",
    "address": " 37 rue de Belleville"
}, {
    "url": "http://invader.spotter.free.fr/images/PA_0303-grosplan.png",
    "name": "PA_0303",
    "longitude": "2.3507500000",
    "latitude": "48.8268200000",
    "address": " 24 passage Boiton"
}, {
    "url": "http://invader.spotter.free.fr/images/PA_0305-grosplan.png",
    "name": "PA_0305",
    "longitude": "2.3555100000",
    "latitude": "48.8427100000",
    "address": " face au 49 rue Geoffroy-Saint-Hilaire"
}, {
    "url": "http://invader.spotter.free.fr/images/PA_0307-grosplan.png",
    "name": "PA_0307",
    "longitude": "2.3893940000",
    "latitude": "48.8686850000",
    "address": " 77 rue de Ménilmontant"
}, {
    "url": "http://invader.spotter.free.fr/images/PA_0308-grosplan.png",
    "name": "PA_0308",
    "longitude": "2.2252990000",
    "latitude": "48.8414430000",
    "address": " 2 quai du 4 septembre"
}, {
    "url": "http://invader.spotter.free.fr/images/PA_0309-grosplan.png",
    "name": "PA_0309",
    "longitude": "2.2827370000",
    "latitude": "48.8769040000",
    "address": " 1 boulevard de l'Amiral Bruix"
}, {
    "url": "http://invader.spotter.free.fr/images/PA_0310-grosplan.png",
    "name": "PA_0310",
    "longitude": "2.2553280000",
    "latitude": "48.8374800000",
    "address": " passerelle de la Porte de Saint-Cloud"
}, {
    "url": "http://invader.spotter.free.fr/images/PA_0311-grosplan.png",
    "name": "PA_0311",
    "longitude": "2.3302930000",
    "latitude": "48.8435790000",
    "address": " face au 5 rue Bréa"
}, {
    "url": "http://invader.spotter.free.fr/images/PA_0312-grosplan.png",
    "name": "PA_0312",
    "longitude": "2.3270610000",
    "latitude": "48.8283660000",
    "address": " parvis de Saint-Pierre de Montrouge"
}, {
    "url": "http://invader.spotter.free.fr/images/PA_0315-grosplan.png",
    "name": "PA_0315",
    "longitude": "2.3511540000",
    "latitude": "48.8300740000",
    "address": " face au 32 boulevard Auguste Blanqui"
}, {
    "url": "http://invader.spotter.free.fr/images/PA_0316-grosplan.png",
    "name": "PA_0316",
    "longitude": "2.3347410000",
    "latitude": "48.8273720000",
    "address": " rue des Artistes"
}, {
    "url": "http://invader.spotter.free.fr/images/PA_0317-grosplan.png",
    "name": "PA_0317",
    "longitude": "2.3316800000",
    "latitude": "48.8366700000",
    "address": " devant la Fondation Cartier"
}, {
    "url": "http://invader.spotter.free.fr/images/PA_0320-grosplan.png",
    "name": "PA_0320",
    "longitude": "2.3381290000",
    "latitude": "48.8366220000",
    "address": " 34 rue du Faubourg Saint-Jacques"
}, {
    "url": "http://invader.spotter.free.fr/images/PA_0321-grosplan.png",
    "name": "PA_0321",
    "longitude": "2.3420150000",
    "latitude": "48.8465370000",
    "address": " 17 rue Malebranche"
}, {
    "url": "http://invader.spotter.free.fr/images/PA_0322-grosplan.png",
    "name": "PA_0322",
    "longitude": "2.3328830000",
    "latitude": "48.8488610000",
    "address": " 77 allée du Séminaire"
}, {
    "url": "http://invader.spotter.free.fr/images/PA_0323-grosplan.png",
    "name": "PA_0323",
    "longitude": "2.3841580000",
    "latitude": "48.8543700000",
    "address": " 102 rue de Charonne"
}, {
    "url": "http://invader.spotter.free.fr/images/PA_0325-grosplan.png",
    "name": "PA_0325",
    "longitude": "2.3939700000",
    "latitude": "48.8649600000",
    "address": " 17 rue Robineau"
}, {
    "url": "http://invader.spotter.free.fr/images/PA_0327-grosplan.png",
    "name": "PA_0327",
    "longitude": "2.3478100000",
    "latitude": "48.8730100000",
    "address": " 29 rue du Faubourg Poissonnière"
}, {
    "url": "http://invader.spotter.free.fr/images/PA_0328-grosplan.png",
    "name": "PA_0328",
    "longitude": "2.3442340000",
    "latitude": "48.8651130000",
    "address": " 40 rue Étienne Marcel"
}, {
    "url": "http://invader.spotter.free.fr/images/PA_0329-grosplan.png",
    "name": "PA_0329",
    "longitude": "2.3611600000",
    "latitude": "48.8865200000",
    "address": " 14 rue Pajol"
}, {
    "url": "http://invader.spotter.free.fr/images/PA_0330-grosplan.png",
    "name": "PA_0330",
    "longitude": "2.3492660000",
    "latitude": "48.8784070000",
    "address": " 102 rue du Faubourg Poissonnière"
}, {
    "url": "http://invader.spotter.free.fr/images/PA_0331-grosplan.png",
    "name": "PA_0331",
    "longitude": "2.3530030000",
    "latitude": "48.8593890000",
    "address": " 2 rue Pierre au Lard"
}, {
    "url": "http://invader.spotter.free.fr/images/PA_0332-grosplan.png",
    "name": "PA_0332",
    "longitude": "2.3893500000",
    "latitude": "48.8596260000",
    "address": " 41 rue du Repos sous la plaque du cimètière"
}, {
    "url": "http://invader.spotter.free.fr/images/PA_0334-grosplan.png",
    "name": "PA_0334",
    "longitude": "2.3639756441",
    "latitude": "48.8439798010",
    "address": " 7-13 Place Valhubert"
}, {
    "url": "http://invader.spotter.free.fr/images/PA_0335-grosplan.png",
    "name": "PA_0335",
    "longitude": "2.3699490000",
    "latitude": "48.8821240000",
    "address": " 135 boulevard de la Villette"
}, {
    "url": "http://invader.spotter.free.fr/images/PA_0336-grosplan.png",
    "name": "PA_0336",
    "longitude": "2.3532390000",
    "latitude": "48.8904390000",
    "address": " centre d'Hygiène Sociale"
}, {
    "url": "http://invader.spotter.free.fr/images/PA_0339-grosplan.png",
    "name": "PA_0339",
    "longitude": "2.3947500000",
    "latitude": "48.8654100000",
    "address": " square du Docteur-Grancher"
}, {
    "url": "http://invader.spotter.free.fr/images/PA_0340-grosplan.png",
    "name": "PA_0340",
    "longitude": "2.3536300000",
    "latitude": "48.8535600000",
    "address": " 45 quai de Bourbon"
}, {
    "url": "http://invader.spotter.free.fr/images/PA_0342-grosplan.png",
    "name": "PA_0342",
    "longitude": "2.3369280000",
    "latitude": "48.8790750000",
    "address": " 19 rue Laferrière"
}, {
    "url": "http://invader.spotter.free.fr/images/PA_0343-grosplan.png",
    "name": "PA_0343",
    "longitude": "2.2911050000",
    "latitude": "48.8601730000",
    "address": " pont d'Iéna (rive droite)"
}, {
    "url": "http://invader.spotter.free.fr/images/PA_0345-grosplan.png",
    "name": "PA_0345",
    "longitude": "2.3216600000",
    "latitude": "48.8489200000",
    "address": " 95 rue de Sèvres"
}, {
    "url": "http://invader.spotter.free.fr/images/PA_0346-grosplan.png",
    "name": "PA_0346",
    "longitude": "2.3122450000",
    "latitude": "48.8429050000",
    "address": " 16 boulevard Pasteur"
}, {
    "url": "http://invader.spotter.free.fr/images/PA_0347-grosplan.png",
    "name": "PA_0347",
    "longitude": "2.3254740000",
    "latitude": "48.8431630000",
    "address": " passage des Épinettes"
}, {
    "url": "http://invader.spotter.free.fr/images/PA_0348-grosplan.png",
    "name": "PA_0348",
    "longitude": "2.3562540000",
    "latitude": "48.8840370000",
    "address": " 39bis boulevard de la Chapelle"
}, {
    "url": "http://invader.spotter.free.fr/images/PA_0349-grosplan.png",
    "name": "PA_0349",
    "longitude": "2.3025930000",
    "latitude": "48.8612450000",
    "address": " 7 avenue Bosquet"
}, {
    "url": "http://invader.spotter.free.fr/images/PA_0350-grosplan.png",
    "name": "PA_0350",
    "longitude": "2.3650820000",
    "latitude": "48.8229330000",
    "address": " école primaire de l'avenue d'Ivry"
}, {
    "url": "http://invader.spotter.free.fr/images/PA_0351-grosplan.png",
    "name": "PA_0351",
    "longitude": "2.3941950000",
    "latitude": "48.8700210000",
    "address": " 121 rue de Ménilmontant"
}, {
    "url": "http://invader.spotter.free.fr/images/PA_0352-grosplan.png",
    "name": "PA_0352",
    "longitude": "2.3582142591",
    "latitude": "48.8776748220",
    "address": " 21 rue d'Alsace"
}, {
    "url": "http://invader.spotter.free.fr/images/PA_0353-grosplan.png",
    "name": "PA_0353",
    "longitude": "2.3247500000",
    "latitude": "48.8694600000",
    "address": " sortie de métro face au 27 boulevard de la Madeleine"
}, {
    "url": "http://invader.spotter.free.fr/images/PA_0354-grosplan.png",
    "name": "PA_0354",
    "longitude": "2.3459150000",
    "latitude": "48.8586590000",
    "address": " 13 rue Jean Lantier"
}, {
    "url": "http://invader.spotter.free.fr/images/PA_0355-grosplan.png",
    "name": "PA_0355",
    "longitude": "2.3497076332",
    "latitude": "48.8626291230",
    "address": " 4 rue de la Grande Truanderie"
}, {
    "url": "http://invader.spotter.free.fr/images/PA_0357-grosplan.png",
    "name": "PA_0357",
    "longitude": "2.2903550000",
    "latitude": "48.8320370000",
    "address": " 21 boulevard Lefebvre"
}, {
    "url": "http://invader.spotter.free.fr/images/PA_0358-grosplan.png",
    "name": "PA_0358",
    "longitude": "2.3912850000",
    "latitude": "48.8714630000",
    "address": " 14 rue de Savies"
}, {
    "url": "http://invader.spotter.free.fr/images/PA_0359-grosplan.png",
    "name": "PA_0359",
    "longitude": "2.3328640000",
    "latitude": "48.8664240000",
    "address": " 45 rue Saint-Roch"
}, {
    "url": "http://invader.spotter.free.fr/images/PA_0360-grosplan.png",
    "name": "PA_0360",
    "longitude": "2.3311883211",
    "latitude": "48.8639348630",
    "address": " 0 rue Saint-Roch"
}, {
    "url": "http://invader.spotter.free.fr/images/PA_0362-grosplan.png",
    "name": "PA_0362",
    "longitude": "2.3647040000",
    "latitude": "48.8717240000",
    "address": " en face de Chez Prune"
}, {
    "url": "http://invader.spotter.free.fr/images/PA_0363-grosplan.png",
    "name": "PA_0363",
    "longitude": "2.3600086569",
    "latitude": "48.8262982710",
    "address": " 116 avenue de Choisy"
}, {
    "url": "http://invader.spotter.free.fr/images/PA_0364-grosplan.png",
    "name": "PA_0364",
    "longitude": "2.2963800000",
    "latitude": "48.8371100000",
    "address": " 347 rue de Vaugirard"
}, {
    "url": "http://invader.spotter.free.fr/images/PA_0365-grosplan.png",
    "name": "PA_0365",
    "longitude": "2.3002810000",
    "latitude": "48.8392490000",
    "address": " 268 rue de Vaugirard"
}, {
    "url": "http://invader.spotter.free.fr/images/PA_0366-grosplan.png",
    "name": "PA_0366",
    "longitude": "2.3035600000",
    "latitude": "48.8299000000",
    "address": " 127 rue Castagnary"
}, {
    "url": "http://invader.spotter.free.fr/images/PA_0367-grosplan.png",
    "name": "PA_0367",
    "longitude": "2.3017000000",
    "latitude": "48.8298100000",
    "address": " 108 rue Brancion"
}, {
    "url": "http://invader.spotter.free.fr/images/PA_0369-grosplan.png",
    "name": "PA_0369",
    "longitude": "2.3850820000",
    "latitude": "48.8534040000",
    "address": " 7 rue Jules Vallès"
}, {
    "url": "http://invader.spotter.free.fr/images/PA_0371-grosplan.png",
    "name": "PA_0371",
    "longitude": "2.3831600000",
    "latitude": "48.8503700000",
    "address": " Ouest de la fontaine de Montreuil"
}, {
    "url": "http://invader.spotter.free.fr/images/PA_0372-grosplan.png",
    "name": "PA_0372",
    "longitude": "2.3740400000",
    "latitude": "48.8519100000",
    "address": " 63 rue du Faubourg Saint-Antoine"
}, {
    "url": "http://invader.spotter.free.fr/images/PA_0373-grosplan.png",
    "name": "PA_0373",
    "longitude": "2.3788090000",
    "latitude": "48.8660610000",
    "address": " 121 rue Oberkampf"
}, {
    "url": "http://invader.spotter.free.fr/images/PA_0374-grosplan.png",
    "name": "PA_0374",
    "longitude": "2.3265410000",
    "latitude": "48.8531980000",
    "address": " 29 boulevard Raspail"
}, {
    "url": "http://invader.spotter.free.fr/images/PA_0375-grosplan.png",
    "name": "PA_0375",
    "longitude": "2.3953880000",
    "latitude": "48.8709220000",
    "address": " 2 rue de l'Est"
}, {
    "url": "http://invader.spotter.free.fr/images/PA_0376-grosplan.png",
    "name": "PA_0376",
    "longitude": "2.3624420000",
    "latitude": "48.8616700000",
    "address": " 28 rue de Poitou"
}, {
    "url": "http://invader.spotter.free.fr/images/PA_0377-grosplan.png",
    "name": "PA_0377",
    "longitude": "2.3710500000",
    "latitude": "48.8630200000",
    "address": " 52 boulevard Voltaire"
}, {
    "url": "http://invader.spotter.free.fr/images/PA_0378-grosplan.png",
    "name": "PA_0378",
    "longitude": "2.3613100000",
    "latitude": "48.8617400000",
    "address": " 45 rue de Poitou"
}, {
    "url": "http://invader.spotter.free.fr/images/PA_0379-grosplan.png",
    "name": "PA_0379",
    "longitude": "2.3573100000",
    "latitude": "48.8588100000",
    "address": " 17 rue des Blancs-Manteaux"
}, {
    "url": "http://invader.spotter.free.fr/images/PA_0380-grosplan.png",
    "name": "PA_0380",
    "longitude": "2.3092890000",
    "latitude": "48.8629470000",
    "address": " port du Gros-caillou"
}, {
    "url": "http://invader.spotter.free.fr/images/PA_0381-grosplan.png",
    "name": "PA_0381",
    "longitude": "2.3012910000",
    "latitude": "48.8522710000",
    "address": " place Joffre"
}, {
    "url": "http://invader.spotter.free.fr/images/PA_0384-grosplan.png",
    "name": "PA_0384",
    "longitude": "2.3783340000",
    "latitude": "48.8698150000",
    "address": " 26 rue du Moulin Joly"
}, {
    "url": "http://invader.spotter.free.fr/images/PA_0385-grosplan.png",
    "name": "PA_0385",
    "longitude": "2.3685600000",
    "latitude": "48.8314900000",
    "address": " 41 rue Dunois"
}, {
    "url": "http://invader.spotter.free.fr/images/PA_0386-grosplan.png",
    "name": "PA_0386",
    "longitude": "2.3208700000",
    "latitude": "48.8818490000",
    "address": " croisement rue de Rome/bvd des Batignolles"
}, {
    "url": "http://invader.spotter.free.fr/images/PA_0388-grosplan.png",
    "name": "PA_0388",
    "longitude": "2.3200920000",
    "latitude": "48.8410830000",
    "address": " Gare Montparnasse"
}, {
    "url": "http://invader.spotter.free.fr/images/PA_0389-grosplan.png",
    "name": "PA_0389",
    "longitude": "2.3893520236",
    "latitude": "48.8794670200",
    "address": " 86 rue de Botzaris"
}, {
    "url": "http://invader.spotter.free.fr/images/PA_0390-grosplan.png",
    "name": "PA_0390",
    "longitude": "2.3863667249",
    "latitude": "48.8560205010",
    "address": " 1 passage Gustave Lepeu"
}, {
    "url": "http://invader.spotter.free.fr/images/PA_0391-grosplan.png",
    "name": "PA_0391",
    "longitude": "2.3850190000",
    "latitude": "48.8317400000",
    "address": " 114 quai de Bercy"
}, {
    "url": "http://invader.spotter.free.fr/images/PA_0392-grosplan.png",
    "name": "PA_0392",
    "longitude": "2.3424480000",
    "latitude": "48.8545650000",
    "address": " 35 quai des Grands Augustins"
}, {
    "url": "http://invader.spotter.free.fr/images/PA_0394-grosplan.png",
    "name": "PA_0394",
    "longitude": "2.3445779085",
    "latitude": "48.8543510020",
    "address": " pont Saint-Michel"
}, {
    "url": "http://invader.spotter.free.fr/images/PA_0395-grosplan.png",
    "name": "PA_0395",
    "longitude": "2.3244900000",
    "latitude": "48.8518200000",
    "address": " 14 rue Chomel"
}, {
    "url": "http://invader.spotter.free.fr/images/PA_0396-grosplan.png",
    "name": "PA_0396",
    "longitude": "2.3544100000",
    "latitude": "48.8626680000",
    "address": " 49 rue de Beaubourg"
}, {
    "url": "http://invader.spotter.free.fr/images/PA_0398-grosplan.png",
    "name": "PA_0398",
    "longitude": "2.3656547069",
    "latitude": "48.8474200440",
    "address": " 1 pont Morland"
}, {
    "url": "http://invader.spotter.free.fr/images/PA_0399-grosplan.png",
    "name": "PA_0399",
    "longitude": "2.3021840000",
    "latitude": "48.8625860000",
    "address": " pont de l'Alma"
}, {
    "url": "http://invader.spotter.free.fr/images/PA_0400-grosplan.png",
    "name": "PA_0400",
    "longitude": "2.3022840000",
    "latitude": "48.8621660000",
    "address": " 93 quai d'Orsay"
}, {
    "url": "http://invader.spotter.free.fr/images/PA_0401-grosplan.png",
    "name": "PA_0401",
    "longitude": "2.3549473280",
    "latitude": "48.8439992000",
    "address": " fontaine de Cuvier"
}, {
    "url": "http://invader.spotter.free.fr/images/PA_0402-grosplan.png",
    "name": "PA_0402",
    "longitude": "2.3201500000",
    "latitude": "48.8624400000",
    "address": " quai Anantole France"
}, {
    "url": "http://invader.spotter.free.fr/images/PA_0403-grosplan.png",
    "name": "PA_0403",
    "longitude": "2.3028900000",
    "latitude": "48.8320800000",
    "address": " porte N-E du parc George Brassens"
}, {
    "url": "http://invader.spotter.free.fr/images/PA_0404-grosplan.png",
    "name": "PA_0404",
    "longitude": "2.3420660000",
    "latitude": "48.8694010000",
    "address": " face au 2 place de la Bourse"
}, {
    "url": "http://invader.spotter.free.fr/images/PA_0405-grosplan.png",
    "name": "PA_0405",
    "longitude": "2.3059310000",
    "latitude": "48.8301680000",
    "address": " face au 110 rue Castagnary"
}, {
    "url": "http://invader.spotter.free.fr/images/PA_0406-grosplan.png",
    "name": "PA_0406",
    "longitude": "2.3571330000",
    "latitude": "48.8607470000",
    "address": " 4 rue de Braque"
}, {
    "url": "http://invader.spotter.free.fr/images/PA_0407-grosplan.png",
    "name": "PA_0407",
    "longitude": "2.3608830000",
    "latitude": "48.8601020000",
    "address": " 93 rue Vieille du Temple"
}, {
    "url": "http://invader.spotter.free.fr/images/PA_0410-grosplan.png",
    "name": "PA_0410",
    "longitude": "2.3882200000",
    "latitude": "48.8683930000",
    "address": " 0 rue de la Mare"
}, {
    "url": "http://invader.spotter.free.fr/images/PA_0411-grosplan.png",
    "name": "PA_0411",
    "longitude": "2.3979941010",
    "latitude": "48.8670526190",
    "address": " 68 rue Orfila"
}, {
    "url": "http://invader.spotter.free.fr/images/PA_0412-grosplan.png",
    "name": "PA_0412",
    "longitude": "2.3935520000",
    "latitude": "48.8647990000",
    "address": " 15 rue Robineau"
}, {
    "url": "http://invader.spotter.free.fr/images/PA_0413-grosplan.png",
    "name": "PA_0413",
    "longitude": "2.3232090000",
    "latitude": "48.8699170000",
    "address": " 3 boulevard Malsherbes"
}, {
    "url": "http://invader.spotter.free.fr/images/PA_0414-grosplan.png",
    "name": "PA_0414",
    "longitude": "2.4100140000",
    "latitude": "48.8919770000",
    "address": " 2 rue du 11 Novembre 1918"
}, {
    "url": "http://invader.spotter.free.fr/images/PA_0415-grosplan.png",
    "name": "PA_0415",
    "longitude": "2.3863450000",
    "latitude": "48.8528950000",
    "address": " 34 rue Titon"
}, {
    "url": "http://invader.spotter.free.fr/images/PA_0416-grosplan.png",
    "name": "PA_0416",
    "longitude": "2.3632210000",
    "latitude": "48.8715370000",
    "address": " 9 rue de Marseille"
}, {
    "url": "http://invader.spotter.free.fr/images/PA_0418-grosplan.png",
    "name": "PA_0418",
    "longitude": "2.3443310000",
    "latitude": "48.9014610000",
    "address": " 139 avenue Michelet"
}, {
    "url": "http://invader.spotter.free.fr/images/PA_0420-grosplan.png",
    "name": "PA_0420",
    "longitude": "2.3360240000",
    "latitude": "48.9091310000",
    "address": " 45 rue Anselme"
}, {
    "url": "http://invader.spotter.free.fr/images/PA_0421-grosplan.png",
    "name": "PA_0421",
    "longitude": "2.3957100000",
    "latitude": "48.8647600000",
    "address": " 71 rue des Rondeaux"
}, {
    "url": "http://invader.spotter.free.fr/images/PA_0422-grosplan.png",
    "name": "PA_0422",
    "longitude": "2.3691800000",
    "latitude": "48.8312400000",
    "address": " 32 rue Dunois"
}, {
    "url": "http://invader.spotter.free.fr/images/PA_0423-grosplan.png",
    "name": "PA_0423",
    "longitude": "2.3099150000",
    "latitude": "48.8718120000",
    "address": " 63 avenue Franklin Delano Roosevelt"
}, {
    "url": "http://invader.spotter.free.fr/images/PA_0424-grosplan.png",
    "name": "PA_0424",
    "longitude": "2.2955820000",
    "latitude": "48.8646650000",
    "address": " 13 rue de la Manutention"
}, {
    "url": "http://invader.spotter.free.fr/images/PA_0426-grosplan.png",
    "name": "PA_0426",
    "longitude": "2.3570220000",
    "latitude": "48.8160640000",
    "address": " face au pavillon d'Italie"
}, {
    "url": "http://invader.spotter.free.fr/images/PA_0427-grosplan.png",
    "name": "PA_0427",
    "longitude": "2.3753630000",
    "latitude": "48.8299120000",
    "address": " 10 rue de Tolbiac"
}, {
    "url": "http://invader.spotter.free.fr/images/PA_0428-grosplan.png",
    "name": "PA_0428",
    "longitude": "2.2923560000",
    "latitude": "48.8745040000",
    "address": " 7 avenue de la Grande Armée"
}, {
    "url": "http://invader.spotter.free.fr/images/PA_0429-grosplan.png",
    "name": "PA_0429",
    "longitude": "2.2924786806",
    "latitude": "48.8762768290",
    "address": " 22 avenue Carnot"
}, {
    "url": "http://invader.spotter.free.fr/images/PA_0430-grosplan.png",
    "name": "PA_0430",
    "longitude": "2.3651300000",
    "latitude": "48.8721830000",
    "address": " le Comptoire Général"
}, {
    "url": "http://invader.spotter.free.fr/images/PA_0431-grosplan.png",
    "name": "PA_0431",
    "longitude": "2.4142880000",
    "latitude": "48.8472690000",
    "address": " rond-point de la porte de Vincennes"
}, {
    "url": "http://invader.spotter.free.fr/images/PA_0432-grosplan.png",
    "name": "PA_0432",
    "longitude": "2.3932940000",
    "latitude": "48.8711310000",
    "address": " 24 rue de l'Est"
}, {
    "url": "http://invader.spotter.free.fr/images/PA_0433-grosplan.png",
    "name": "PA_0433",
    "longitude": "2.4022775880",
    "latitude": "48.8433222620",
    "address": " 33 rue de Sibuet"
}, {
    "url": "http://invader.spotter.free.fr/images/PA_0434-grosplan.png",
    "name": "PA_0434",
    "longitude": "2.3979900000",
    "latitude": "48.8407250000",
    "address": " 19 rue Lamblardie"
}, {
    "url": "http://invader.spotter.free.fr/images/PA_0436-grosplan.png",
    "name": "PA_0436",
    "longitude": "2.3508140000",
    "latitude": "48.8609450000",
    "address": " Centre culturel de Serbie"
}, {
    "url": "http://invader.spotter.free.fr/images/PA_0437-grosplan.png",
    "name": "PA_0437",
    "longitude": "2.3705950000",
    "latitude": "48.8776510000",
    "address": " place du Colonel Fabien"
}, {
    "url": "http://invader.spotter.free.fr/images/PA_0438-grosplan.png",
    "name": "PA_0438",
    "longitude": "2.3858620000",
    "latitude": "48.8829490000",
    "address": " petite ceinture pont de la rue Manin"
}, {
    "url": "http://invader.spotter.free.fr/images/PA_0439-grosplan.png",
    "name": "PA_0439",
    "longitude": "2.3282200000",
    "latitude": "48.8840360000",
    "address": " 134 boulevard de Clichy"
}, {
    "url": "http://invader.spotter.free.fr/images/PA_0441-grosplan.png",
    "name": "PA_0441",
    "longitude": "2.3562890000",
    "latitude": "48.8155330000",
    "address": " 7 rue Gabriel Péri"
}, {
    "url": "http://invader.spotter.free.fr/images/PA_0442-grosplan.png",
    "name": "PA_0442",
    "longitude": "2.3930540000",
    "latitude": "48.8744600000",
    "address": " 46 Olivier Métra"
}, {
    "url": "http://invader.spotter.free.fr/images/PA_0443-grosplan.png",
    "name": "PA_0443",
    "longitude": "2.3810940000",
    "latitude": "48.8761500000",
    "address": " entrée sud des Buttes Chaumont"
}, {
    "url": "http://invader.spotter.free.fr/images/PA_0444-grosplan.png",
    "name": "PA_0444",
    "longitude": "2.3658420000",
    "latitude": "48.8831490000",
    "address": " 14 rue Chaudron"
}, {
    "url": "http://invader.spotter.free.fr/images/PA_0445-grosplan.png",
    "name": "PA_0445",
    "longitude": "2.3608160018",
    "latitude": "48.8803031210",
    "address": " 181 rue Lafayette"
}, {
    "url": "http://invader.spotter.free.fr/images/PA_0446-grosplan.png",
    "name": "PA_0446",
    "longitude": "2.3732370000",
    "latitude": "48.8702610000",
    "address": " 174 rue Saint-Maur"
}, {
    "url": "http://invader.spotter.free.fr/images/PA_0447-grosplan.png",
    "name": "PA_0447",
    "longitude": "2.3637700000",
    "latitude": "48.8726500000",
    "address": " à l'intérieur d'Artazart"
}, {
    "url": "http://invader.spotter.free.fr/images/PA_0448-grosplan.png",
    "name": "PA_0448",
    "longitude": "2.3651480000",
    "latitude": "48.8721480000",
    "address": " 80 quai Jemmapes"
}, {
    "url": "http://invader.spotter.free.fr/images/PA_0449-grosplan.png",
    "name": "PA_0449",
    "longitude": "2.3147160000",
    "latitude": "48.8715520000",
    "address": " 73 rue du Faubourg Saint-Honoré"
}, {
    "url": "http://invader.spotter.free.fr/images/PA_0450-grosplan.png",
    "name": "PA_0450",
    "longitude": "2.3568620000",
    "latitude": "48.8647700000",
    "address": " 5 rue Volta"
}, {
    "url": "http://invader.spotter.free.fr/images/PA_0451-grosplan.png",
    "name": "PA_0451",
    "longitude": "2.3766383528",
    "latitude": "48.8533335680",
    "address": " 39 rue de Charonne"
}, {
    "url": "http://invader.spotter.free.fr/images/PA_0452-grosplan.png",
    "name": "PA_0452",
    "longitude": "2.3763670000",
    "latitude": "48.8528110000",
    "address": " 5 passage Saint-Antoine"
}, {
    "url": "http://invader.spotter.free.fr/images/PA_0453-grosplan.png",
    "name": "PA_0453",
    "longitude": "2.3896310000",
    "latitude": "48.8645620000",
    "address": " 24 à 32 rue des Amandiers"
}, {
    "url": "http://invader.spotter.free.fr/images/PA_0454-grosplan.png",
    "name": "PA_0454",
    "longitude": "2.3636376857",
    "latitude": "48.8731270100",
    "address": " Assainissement de Valmy"
}, {
    "url": "http://invader.spotter.free.fr/images/PA_0455-grosplan.png",
    "name": "PA_0455",
    "longitude": "2.3377208411",
    "latitude": "48.8551548740",
    "address": " 48 rue Mazarine"
}, {
    "url": "http://invader.spotter.free.fr/images/PA_0456-grosplan.png",
    "name": "PA_0456",
    "longitude": "2.2944125533",
    "latitude": "48.8646000710",
    "address": " 1 place d'Iéna"
}, {
    "url": "http://invader.spotter.free.fr/images/PA_0458-grosplan.png",
    "name": "PA_0458",
    "longitude": "2.3909360000",
    "latitude": "48.8664030000",
    "address": " 16 rue Elise Borey"
}, {
    "url": "http://invader.spotter.free.fr/images/PA_0459-grosplan.png",
    "name": "PA_0459",
    "longitude": "2.3682500000",
    "latitude": "48.8349140000",
    "address": " métro Chevaleret"
}, {
    "url": "http://invader.spotter.free.fr/images/PA_0460-grosplan.png",
    "name": "PA_0460",
    "longitude": "2.3699520000",
    "latitude": "48.8343950000",
    "address": " 39P rue Louise Weiss"
}, {
    "url": "http://invader.spotter.free.fr/images/PA_0461-grosplan.png",
    "name": "PA_0461",
    "longitude": "2.4000090000",
    "latitude": "48.8617650000",
    "address": " 5-7 rue Charles Renouvier"
}, {
    "url": "http://invader.spotter.free.fr/images/PA_0462-grosplan.png",
    "name": "PA_0462",
    "longitude": "2.3475780000",
    "latitude": "48.8683780000",
    "address": " 44 rue de Cléry"
}, {
    "url": "http://invader.spotter.free.fr/images/PA_0465-grosplan.png",
    "name": "PA_0465",
    "longitude": "2.3785460000",
    "latitude": "48.8569770000",
    "address": " 114 rue de la Roquette"
}, {
    "url": "http://invader.spotter.free.fr/images/PA_0466-grosplan.png",
    "name": "PA_0466",
    "longitude": "2.3734020000",
    "latitude": "48.8681460000",
    "address": " 51 rue de la Fontaine au Roi"
}, {
    "url": "http://invader.spotter.free.fr/images/PA_0467-grosplan.png",
    "name": "PA_0467",
    "longitude": "2.3849690000",
    "latitude": "48.8715670000",
    "address": " parc de Belleville"
}, {
    "url": "http://invader.spotter.free.fr/images/PA_0468-grosplan.png",
    "name": "PA_0468",
    "longitude": "2.3469798266",
    "latitude": "48.8659198740",
    "address": " 65 rue Montorgueil"
}, {
    "url": "http://invader.spotter.free.fr/images/PA_0470-grosplan.png",
    "name": "PA_0470",
    "longitude": "2.3456829786",
    "latitude": "48.8647835750",
    "address": " 1057 & 1062"
}, {
    "url": "http://invader.spotter.free.fr/images/PA_0471-grosplan.png",
    "name": "PA_0471",
    "longitude": "2.3900910000",
    "latitude": "48.8688210000",
    "address": " 83 rue de Ménilmontant"
}, {
    "url": "http://invader.spotter.free.fr/images/PA_0472-grosplan.png",
    "name": "PA_0472",
    "longitude": "2.3713620000",
    "latitude": "48.8590400000",
    "address": " 11Z rue Gaby Sylvia"
}, {
    "url": "http://invader.spotter.free.fr/images/PA_0473-grosplan.png",
    "name": "PA_0473",
    "longitude": "2.3380064964",
    "latitude": "48.8514707200",
    "address": " 3 rue Saint-Sulpice"
}, {
    "url": "http://invader.spotter.free.fr/images/PA_0474-grosplan.png",
    "name": "PA_0474",
    "longitude": "2.3085770000",
    "latitude": "48.8805780000",
    "address": " 2 rue de Prony"
}, {
    "url": "http://invader.spotter.free.fr/images/PA_0475-grosplan.png",
    "name": "PA_0475",
    "longitude": "2.2933250000",
    "latitude": "48.8746730000",
    "address": " 2 avenue de la Grande Armée"
}, {
    "url": "http://invader.spotter.free.fr/images/PA_0476-grosplan.png",
    "name": "PA_0476",
    "longitude": "2.3060882091",
    "latitude": "48.8718100400",
    "address": " 1 rue Paul Baudry"
}, {
    "url": "http://invader.spotter.free.fr/images/PA_0477-grosplan.png",
    "name": "PA_0477",
    "longitude": "2.4155530000",
    "latitude": "48.8543380000",
    "address": " 267b rue de Paris"
}, {
    "url": "http://invader.spotter.free.fr/images/PA_0478-grosplan.png",
    "name": "PA_0478",
    "longitude": "2.2814380000",
    "latitude": "48.8526160000",
    "address": " pont du Rouelle"
}, {
    "url": "http://invader.spotter.free.fr/images/PA_0480-grosplan.png",
    "name": "PA_0480",
    "longitude": "2.3597740000",
    "latitude": "48.8558700000",
    "address": " 14 rue du Roi de Sicile"
}, {
    "url": "http://invader.spotter.free.fr/images/PA_0481-grosplan.png",
    "name": "PA_0481",
    "longitude": "2.3324820000",
    "latitude": "48.8449740000",
    "address": " sous la plaque de rue du coin du parc"
}, {
    "url": "http://invader.spotter.free.fr/images/PA_0484-grosplan.png",
    "name": "PA_0484",
    "longitude": "2.3230060000",
    "latitude": "48.8783880000",
    "address": " 24 rue de Vienne"
}, {
    "url": "http://invader.spotter.free.fr/images/PA_0485-grosplan.png",
    "name": "PA_0485",
    "longitude": "2.2899090000",
    "latitude": "48.8702640000",
    "address": " 15 rue Paul Valérie"
}, {
    "url": "http://invader.spotter.free.fr/images/PA_0486-grosplan.png",
    "name": "PA_0486",
    "longitude": "2.3190900000",
    "latitude": "48.8529090000",
    "address": " 26 rue Vaneau"
}, {
    "url": "http://invader.spotter.free.fr/images/PA_0488-grosplan.png",
    "name": "PA_0488",
    "longitude": "2.4003900000",
    "latitude": "48.8348400000",
    "address": " 79 rue de Wattignies"
}, {
    "url": "http://invader.spotter.free.fr/images/PA_0489-grosplan.png",
    "name": "PA_0489",
    "longitude": "2.3855942487",
    "latitude": "48.8741114050",
    "address": " 1 rue Clavel"
}, {
    "url": "http://invader.spotter.free.fr/images/PA_0490-grosplan.png",
    "name": "PA_0490",
    "longitude": "2.3919810000",
    "latitude": "48.8995790000",
    "address": " 10 rue du Chemin de Fer"
}, {
    "url": "http://invader.spotter.free.fr/images/PA_0492-grosplan.png",
    "name": "PA_0492",
    "longitude": "2.3953100000",
    "latitude": "48.8738800000",
    "address": " 36 rue du Soleil"
}, {
    "url": "http://invader.spotter.free.fr/images/PA_0493-grosplan.png",
    "name": "PA_0493",
    "longitude": "2.3435000000",
    "latitude": "48.8612400000",
    "address": " 87 rue Saint-Honoré"
}, {
    "url": "http://invader.spotter.free.fr/images/PA_0494-grosplan.png",
    "name": "PA_0494",
    "longitude": "2.3251493275",
    "latitude": "48.8413275280",
    "address": " 41 rue Delambre"
}, {
    "url": "http://invader.spotter.free.fr/images/PA_0495-grosplan.png",
    "name": "PA_0495",
    "longitude": "2.3525570000",
    "latitude": "48.8444970000",
    "address": " 17 rue de Navarre"
}, {
    "url": "http://invader.spotter.free.fr/images/PA_0496-grosplan.png",
    "name": "PA_0496",
    "longitude": "2.3562910000",
    "latitude": "48.8687890000",
    "address": " 51 boulevard Saint-Martin"
}, {
    "url": "http://invader.spotter.free.fr/images/PA_0497-grosplan.png",
    "name": "PA_0497",
    "longitude": "2.5281520000",
    "latitude": "49.0067620000",
    "address": " sortie routière de Roissy-Charles-de-Gaulle"
}, {
    "url": "http://invader.spotter.free.fr/images/PA_0498-grosplan.png",
    "name": "PA_0498",
    "longitude": "2.3357300000",
    "latitude": "48.8807780000",
    "address": " 64 rue de la Rochefoucauld"
}, {
    "url": "http://invader.spotter.free.fr/images/PA_0499-grosplan.png",
    "name": "PA_0499",
    "longitude": "2.3655070000",
    "latitude": "48.8775190000",
    "address": " pont Eugène-Varlin"
}, {
    "url": "http://invader.spotter.free.fr/images/PA_0501-grosplan.png",
    "name": "PA_0501",
    "longitude": "2.3646730000",
    "latitude": "48.8663610000",
    "address": " au pied des escaliers du boulevard du Temple"
}, {
    "url": "http://invader.spotter.free.fr/images/PA_0502-grosplan.png",
    "name": "PA_0502",
    "longitude": "2.3530000448",
    "latitude": "48.8404139830",
    "address": " 29 rue Censier"
}, {
    "url": "http://invader.spotter.free.fr/images/PA_0503-grosplan.png",
    "name": "PA_0503",
    "longitude": "2.3646720000",
    "latitude": "48.8603820000",
    "address": " 74 rue de Turenne"
}, {
    "url": "http://invader.spotter.free.fr/images/PA_0504-grosplan.png",
    "name": "PA_0504",
    "longitude": "2.3583700000",
    "latitude": "48.8577140000",
    "address": " 52 rue des Rosiers"
}, {
    "url": "http://invader.spotter.free.fr/images/PA_0506-grosplan.png",
    "name": "PA_0506",
    "longitude": "2.3492920000",
    "latitude": "48.8668870000",
    "address": " square Pierre Lazareff"
}, {
    "url": "http://invader.spotter.free.fr/images/PA_0507-grosplan.png",
    "name": "PA_0507",
    "longitude": "2.3690370000",
    "latitude": "48.8753790000",
    "address": " 21 rue Juliette Dodu"
}, {
    "url": "http://invader.spotter.free.fr/images/PA_0508-grosplan.png",
    "name": "PA_0508",
    "longitude": "2.3441750000",
    "latitude": "48.8617020000",
    "address": " 9 rue des Prouvaires"
}, {
    "url": "http://invader.spotter.free.fr/images/PA_0510-grosplan.png",
    "name": "PA_0510",
    "longitude": "2.3706489801",
    "latitude": "48.8532656000",
    "address": " place de la Bastille"
}, {
    "url": "http://invader.spotter.free.fr/images/PA_0514-grosplan.png",
    "name": "PA_0514",
    "longitude": "2.2969050000",
    "latitude": "48.8641530000",
    "address": " Palais de Tokyo"
}, {
    "url": "http://invader.spotter.free.fr/images/PA_0515-grosplan.png",
    "name": "PA_0515",
    "longitude": "2.3939144611",
    "latitude": "48.8485337920",
    "address": " 278 rue du Faubourg Saint-Antoine"
}, {
    "url": "http://invader.spotter.free.fr/images/PA_0516-grosplan.png",
    "name": "PA_0516",
    "longitude": "2.3955430000",
    "latitude": "48.8701720000",
    "address": " 129-133 rue de Ménilmontant"
}, {
    "url": "http://invader.spotter.free.fr/images/PA_0517-grosplan.png",
    "name": "PA_0517",
    "longitude": "2.3654600000",
    "latitude": "48.8616700000",
    "address": " 13 rue Froissart"
}, {
    "url": "http://invader.spotter.free.fr/images/PA_0520-grosplan.png",
    "name": "PA_0520",
    "longitude": "2.4946960000",
    "latitude": "48.8355460000",
    "address": " viaduc rue Jacques Kablé"
}, {
    "url": "http://invader.spotter.free.fr/images/PA_0521-grosplan.png",
    "name": "PA_0521",
    "longitude": "2.3998250000",
    "latitude": "48.8755380000",
    "address": " cimetière de Belleville"
}, {
    "url": "http://invader.spotter.free.fr/images/PA_0522-grosplan.png",
    "name": "PA_0522",
    "longitude": "2.3690360000",
    "latitude": "48.8663790000",
    "address": " Square Jules Ferry"
}, {
    "url": "http://invader.spotter.free.fr/images/PA_0523-grosplan.png",
    "name": "PA_0523",
    "longitude": "2.3532240000",
    "latitude": "48.8527870000",
    "address": " face au 4 rue Jean du Bellay"
}, {
    "url": "http://invader.spotter.free.fr/images/PA_0524-grosplan.png",
    "name": "PA_0524",
    "longitude": "2.5088850000",
    "latitude": "48.8269050000",
    "address": " 244 avenue du Général de Gaulle"
}, {
    "url": "http://invader.spotter.free.fr/images/PA_0525-grosplan.png",
    "name": "PA_0525",
    "longitude": "2.3527590000",
    "latitude": "48.8594820000",
    "address": " 16 rue Saint-Merri"
}, {
    "url": "http://invader.spotter.free.fr/images/PA_0526-grosplan.png",
    "name": "PA_0526",
    "longitude": "2.4871260000",
    "latitude": "48.8604320000",
    "address": " au croisement de l'A86 et de la ligne de RER E"
}, {
    "url": "http://invader.spotter.free.fr/images/PA_0527-grosplan.png",
    "name": "PA_0527",
    "longitude": "2.3662210000",
    "latitude": "48.8331810000",
    "address": " 74 rue Dunois"
}, {
    "url": "http://invader.spotter.free.fr/images/PA_0528-grosplan.png",
    "name": "PA_0528",
    "longitude": "2.3475600000",
    "latitude": "48.8506320000",
    "address": " 13 rue des Anglais"
}, {
    "url": "http://invader.spotter.free.fr/images/PA_0529-grosplan.png",
    "name": "PA_0529",
    "longitude": "2.3517150000",
    "latitude": "48.8493940000",
    "address": " 15 rue de Pontoise"
}, {
    "url": "http://invader.spotter.free.fr/images/PA_0530-grosplan.png",
    "name": "PA_0530",
    "longitude": "2.3884210000",
    "latitude": "48.8735120000",
    "address": " 83 rue de la Mare"
}, {
    "url": "http://invader.spotter.free.fr/images/PA_0531-grosplan.png",
    "name": "PA_0531",
    "longitude": "2.3953480000",
    "latitude": "48.8701500000",
    "address": " 129 rue de Ménilmontant"
}, {
    "url": "http://invader.spotter.free.fr/images/PA_0533-grosplan.png",
    "name": "PA_0533",
    "longitude": "2.3438110000",
    "latitude": "48.9008160000",
    "address": " sous le périph' porte de Cligancourt"
}, {
    "url": "http://invader.spotter.free.fr/images/PA_0534-grosplan.png",
    "name": "PA_0534",
    "longitude": "2.2967000000",
    "latitude": "48.8646000000",
    "address": " entrée du Palais de Tokyo"
}, {
    "url": "http://invader.spotter.free.fr/images/PA_0535-grosplan.png",
    "name": "PA_0535",
    "longitude": "2.3999200000",
    "latitude": "48.8553030000",
    "address": " 37 rue de Terre Neuve"
}, {
    "url": "http://invader.spotter.free.fr/images/PA_0536-grosplan.png",
    "name": "PA_0536",
    "longitude": "2.3887100000",
    "latitude": "48.8395200000",
    "address": " 7 rue de la Planchette"
}, {
    "url": "http://invader.spotter.free.fr/images/PA_0539-grosplan.png",
    "name": "PA_0539",
    "longitude": "2.3541910000",
    "latitude": "48.8620140000",
    "address": " 30 rue Beaubourg dans la cour"
}, {
    "url": "http://invader.spotter.free.fr/images/PA_0540-grosplan.png",
    "name": "PA_0540",
    "longitude": "2.3813100000",
    "latitude": "48.8682000000",
    "address": " impasse Questre"
}, {
    "url": "http://invader.spotter.free.fr/images/PA_0542-grosplan.png",
    "name": "PA_0542",
    "longitude": "2.3792079091",
    "latitude": "48.8433672750",
    "address": " 5 rue de Rambouillet"
}, {
    "url": "http://invader.spotter.free.fr/images/PA_0543-grosplan.png",
    "name": "PA_0543",
    "longitude": "2.3709890000",
    "latitude": "48.8325750000",
    "address": " 1 rue Duchefdelaville"
}, {
    "url": "http://invader.spotter.free.fr/images/PA_0545-grosplan.png",
    "name": "PA_0545",
    "longitude": "2.3965900000",
    "latitude": "48.8676100000",
    "address": " 62 rue Villiers de l'Isle Adam"
}, {
    "url": "http://invader.spotter.free.fr/images/PA_0546-grosplan.png",
    "name": "PA_0546",
    "longitude": "2.3971700000",
    "latitude": "48.8319830000",
    "address": " 320bis rue de Charenton"
}, {
    "url": "http://invader.spotter.free.fr/images/PA_0547-grosplan.png",
    "name": "PA_0547",
    "longitude": "2.3816514015",
    "latitude": "48.8731552370",
    "address": " place Fréhel"
}, {
    "url": "http://invader.spotter.free.fr/images/PA_0548-grosplan.png",
    "name": "PA_0548",
    "longitude": "2.3738440000",
    "latitude": "48.8709790000",
    "address": " 103 rue du Faubourg du Temple"
}, {
    "url": "http://invader.spotter.free.fr/images/PA_0549-grosplan.png",
    "name": "PA_0549",
    "longitude": "2.3589451610",
    "latitude": "48.8732619600",
    "address": " 54 rue des Vinaigriers"
}, {
    "url": "http://invader.spotter.free.fr/images/PA_0550-grosplan.png",
    "name": "PA_0550",
    "longitude": "2.3366000000",
    "latitude": "48.8548200000",
    "address": " 8 rue de l'Échaudé"
}, {
    "url": "http://invader.spotter.free.fr/images/PA_0551-grosplan.png",
    "name": "PA_0551",
    "longitude": "2.4115010000",
    "latitude": "48.8652350000",
    "address": " 1 avenue Ibsen"
}, {
    "url": "http://invader.spotter.free.fr/images/PA_0552-grosplan.png",
    "name": "PA_0552",
    "longitude": "2.3303010000",
    "latitude": "48.8717680000",
    "address": " 3 rue Auber"
}, {
    "url": "http://invader.spotter.free.fr/images/PA_0553-grosplan.png",
    "name": "PA_0553",
    "longitude": "2.3399370000",
    "latitude": "48.8814820000",
    "address": " 74 rue des Martyrs"
}, {
    "url": "http://invader.spotter.free.fr/images/PA_0554-grosplan.png",
    "name": "PA_0554",
    "longitude": "2.3915610000",
    "latitude": "48.8432570000",
    "address": " 101 rue de Reuilly"
}, {
    "url": "http://invader.spotter.free.fr/images/PA_0555-grosplan.png",
    "name": "PA_0555",
    "longitude": "2.3687840000",
    "latitude": "48.8545890000",
    "address": " 11 boulevard Beaumarchais"
}, {
    "url": "http://invader.spotter.free.fr/images/PA_0556-grosplan.png",
    "name": "PA_0556",
    "longitude": "2.3490570000",
    "latitude": "48.8519050000",
    "address": " 2 rue de l'Hôtel Colbert"
}, {
    "url": "http://invader.spotter.free.fr/images/PA_0557-grosplan.png",
    "name": "PA_0557",
    "longitude": "2.3411980000",
    "latitude": "48.8415440000",
    "address": " 282 rue Saint-Jacques"
}, {
    "url": "http://invader.spotter.free.fr/images/PA_0558-grosplan.png",
    "name": "PA_0558",
    "longitude": "2.3958900000",
    "latitude": "48.8385790000",
    "address": " 45 rue de la Brèche aux Loups"
}, {
    "url": "http://invader.spotter.free.fr/images/PA_0559-grosplan.png",
    "name": "PA_0559",
    "longitude": "2.3964190000",
    "latitude": "48.8387400000",
    "address": " 1 rue Raoul"
}, {
    "url": "http://invader.spotter.free.fr/images/PA_0560-grosplan.png",
    "name": "PA_0560",
    "longitude": "2.2740400000",
    "latitude": "48.8685800000",
    "address": " 65 boulevard Flandrin"
}, {
    "url": "http://invader.spotter.free.fr/images/PA_0562-grosplan.png",
    "name": "PA_0562",
    "longitude": "2.3399380000",
    "latitude": "48.8924120000",
    "address": " 27 rue du Ruisseau"
}, {
    "url": "http://invader.spotter.free.fr/images/PA_0563-grosplan.png",
    "name": "PA_0563",
    "longitude": "2.3371294140",
    "latitude": "48.8621932810",
    "address": " 2 place du Palais Royal"
}, {
    "url": "http://invader.spotter.free.fr/images/PA_0565-grosplan.png",
    "name": "PA_0565",
    "longitude": "2.3618650000",
    "latitude": "48.8810760000",
    "address": " 3 rue Philippe de Girard"
}, {
    "url": "http://invader.spotter.free.fr/images/PA_0566-grosplan.png",
    "name": "PA_0566",
    "longitude": "2.3885140000",
    "latitude": "48.8598670000",
    "address": " 181 rue de la Roquette"
}, {
    "url": "http://invader.spotter.free.fr/images/PA_0567-grosplan.png",
    "name": "PA_0567",
    "longitude": "2.4022230000",
    "latitude": "48.8760230000",
    "address": " 117 rue Haxo"
}, {
    "url": "http://invader.spotter.free.fr/images/PA_0568-grosplan.png",
    "name": "PA_0568",
    "longitude": "2.3587802052",
    "latitude": "48.8798850720",
    "address": " 2 rue de l'Aqueduc"
}, {
    "url": "http://invader.spotter.free.fr/images/PA_0569-grosplan.png",
    "name": "PA_0569",
    "longitude": "2.4426830000",
    "latitude": "48.8168510000",
    "address": " passerelle de Charentonneau"
}, {
    "url": "http://invader.spotter.free.fr/images/PA_0570-grosplan.png",
    "name": "PA_0570",
    "longitude": "2.3595000000",
    "latitude": "48.8553000000",
    "address": " 82 rue François Miron"
}, {
    "url": "http://invader.spotter.free.fr/images/PA_0571-grosplan.png",
    "name": "PA_0571",
    "longitude": "2.3674600000",
    "latitude": "48.8472600000",
    "address": " 10 boulevard de la Bastille"
}, {
    "url": "http://invader.spotter.free.fr/images/PA_0572-grosplan.png",
    "name": "PA_0572",
    "longitude": "2.3573850000",
    "latitude": "48.8564830000",
    "address": " 27 rue du Roi de Sicile"
}, {
    "url": "http://invader.spotter.free.fr/images/PA_0575-grosplan.png",
    "name": "PA_0575",
    "longitude": "2.3630040000",
    "latitude": "48.8615960000",
    "address": " 22 rue de Poitou"
}, {
    "url": "http://invader.spotter.free.fr/images/PA_0576-grosplan.png",
    "name": "PA_0576",
    "longitude": "2.3352720000",
    "latitude": "48.8624410000",
    "address": " 2 place du Carrousel"
}, {
    "url": "http://invader.spotter.free.fr/images/PA_0577-grosplan.png",
    "name": "PA_0577",
    "longitude": "2.3898375034",
    "latitude": "48.8732222750",
    "address": " 5 rue Levert"
}, {
    "url": "http://invader.spotter.free.fr/images/PA_0578-grosplan.png",
    "name": "PA_0578",
    "longitude": "2.3118361830",
    "latitude": "48.8452630800",
    "address": " 3 place Henri Queuille"
}, {
    "url": "http://invader.spotter.free.fr/images/PA_0579-grosplan.png",
    "name": "PA_0579",
    "longitude": "2.3348690000",
    "latitude": "48.8625270000",
    "address": " entrée nord-ouest du Carrousel"
}, {
    "url": "http://invader.spotter.free.fr/images/PA_0580-grosplan.png",
    "name": "PA_0580",
    "longitude": "2.3528800000",
    "latitude": "48.8579500000",
    "address": " 59 rue de la Verrerie"
}, {
    "url": "http://invader.spotter.free.fr/images/PA_0581-grosplan.png",
    "name": "PA_0581",
    "longitude": "2.3351640000",
    "latitude": "48.8624650000",
    "address": " entrée nord-est du Carrousel"
}, {
    "url": "http://invader.spotter.free.fr/images/PA_0582-grosplan.png",
    "name": "PA_0582",
    "longitude": "2.3356997966",
    "latitude": "48.8665709400",
    "address": " 14 rue Villedo"
}, {
    "url": "http://invader.spotter.free.fr/images/PA_0583-grosplan.png",
    "name": "PA_0583",
    "longitude": "2.3262970000",
    "latitude": "48.8777460000",
    "address": " 2 impasse d'Amsterdam"
}, {
    "url": "http://invader.spotter.free.fr/images/PA_0585-grosplan.png",
    "name": "PA_0585",
    "longitude": "2.3534070000",
    "latitude": "48.8613380000",
    "address": " métro Rambuteau"
}, {
    "url": "http://invader.spotter.free.fr/images/PA_0586-grosplan.png",
    "name": "PA_0586",
    "longitude": "2.3674390000",
    "latitude": "48.8591930000",
    "address": " 89 boulevard Beaumarchais"
}, {
    "url": "http://invader.spotter.free.fr/images/PA_0588-grosplan.png",
    "name": "PA_0588",
    "longitude": "2.3632380366",
    "latitude": "48.8526337950",
    "address": " 5 rue Charles V"
}, {
    "url": "http://invader.spotter.free.fr/images/PA_0589-grosplan.png",
    "name": "PA_0589",
    "longitude": "2.3861789703",
    "latitude": "48.8744130700",
    "address": " 1 rue Melingue"
}, {
    "url": "http://invader.spotter.free.fr/images/PA_0590-grosplan.png",
    "name": "PA_0590",
    "longitude": "2.3494010000",
    "latitude": "48.8637230000",
    "address": " 17 rue Étienne Marcel"
}, {
    "url": "http://invader.spotter.free.fr/images/PA_0591-grosplan.png",
    "name": "PA_0591",
    "longitude": "2.3729970000",
    "latitude": "48.8691060000",
    "address": " villa du Clos de Malvert"
}, {
    "url": "http://invader.spotter.free.fr/images/PA_0592-grosplan.png",
    "name": "PA_0592",
    "longitude": "2.3341200000",
    "latitude": "48.8490800000",
    "address": " 19 rue Férou"
}, {
    "url": "http://invader.spotter.free.fr/images/PA_0593-grosplan.png",
    "name": "PA_0593",
    "longitude": "2.2782560000",
    "latitude": "48.8364380000",
    "address": " place Balard sous la Petite Ceinture"
}, {
    "url": "http://invader.spotter.free.fr/images/PA_0594-grosplan.png",
    "name": "PA_0594",
    "longitude": "2.2787820000",
    "latitude": "48.8366770000",
    "address": " place Balard"
}, {
    "url": "http://invader.spotter.free.fr/images/PA_0595-grosplan.png",
    "name": "PA_0595",
    "longitude": "2.2818670000",
    "latitude": "48.8379350000",
    "address": " 183 rue de Lourmel"
}, {
    "url": "http://invader.spotter.free.fr/images/PA_0596-grosplan.png",
    "name": "PA_0596",
    "longitude": "2.2955860000",
    "latitude": "48.8433390000",
    "address": " 85 rue de la Croix Nivert"
}, {
    "url": "http://invader.spotter.free.fr/images/PA_0597-grosplan.png",
    "name": "PA_0597",
    "longitude": "2.2976380000",
    "latitude": "48.8492090000",
    "address": " métro La Motte-Picquet-Grenelle"
}, {
    "url": "http://invader.spotter.free.fr/images/PA_0598-grosplan.png",
    "name": "PA_0598",
    "longitude": "2.3101670000",
    "latitude": "48.8572000000",
    "address": " 1 avenue de la Motte-Picquet"
}, {
    "url": "http://invader.spotter.free.fr/images/PA_0599-grosplan.png",
    "name": "PA_0599",
    "longitude": "2.3848610000",
    "latitude": "48.8867840000",
    "address": " 2 rue de l'Ourcq"
}, {
    "url": "http://invader.spotter.free.fr/images/PA_0600-grosplan.png",
    "name": "PA_0600",
    "longitude": "2.3968770000",
    "latitude": "48.8864870000",
    "address": " entrée du tunnel de la porte Chaumont"
}, {
    "url": "http://invader.spotter.free.fr/images/PA_0601-grosplan.png",
    "name": "PA_0601",
    "longitude": "2.4853770000",
    "latitude": "48.8598860000",
    "address": " A86 à l'angle du stade Pierre de Coubertin"
}, {
    "url": "http://invader.spotter.free.fr/images/PA_0602-grosplan.png",
    "name": "PA_0602",
    "longitude": "2.3855566978",
    "latitude": "48.8738256150",
    "address": " cour de la Métairie"
}, {
    "url": "http://invader.spotter.free.fr/images/PA_0604-grosplan.png",
    "name": "PA_0604",
    "longitude": "2.3871231079",
    "latitude": "48.8467069500",
    "address": " 36 rue Erard"
}, {
    "url": "http://invader.spotter.free.fr/images/PA_0605-grosplan.png",
    "name": "PA_0605",
    "longitude": "2.3424495756",
    "latitude": "48.8843872940",
    "address": " 1 place Suzanne Valadon"
}, {
    "url": "http://invader.spotter.free.fr/images/PA_0606-grosplan.png",
    "name": "PA_0606",
    "longitude": "2.3449380000",
    "latitude": "48.8671820000",
    "address": " 39 rue d'Aboukir"
}, {
    "url": "http://invader.spotter.free.fr/images/PA_0607-grosplan.png",
    "name": "PA_0607",
    "longitude": "2.3418990000",
    "latitude": "48.8834870000",
    "address": " 48 rue d'Orsel"
}, {
    "url": "http://invader.spotter.free.fr/images/PA_0608-grosplan.png",
    "name": "PA_0608",
    "longitude": "2.4842180000",
    "latitude": "48.8201420000",
    "address": " 1 avenue du Général de Gaulle"
}, {
    "url": "http://invader.spotter.free.fr/images/PA_0609-grosplan.png",
    "name": "PA_0609",
    "longitude": "2.3597160000",
    "latitude": "48.8842240000",
    "address": " 35 boulevard de la Chapelle"
}, {
    "url": "http://invader.spotter.free.fr/images/PA_0610-grosplan.png",
    "name": "PA_0610",
    "longitude": "2.4003750000",
    "latitude": "48.8616980000",
    "address": " passage Stendhal"
}, {
    "url": "http://invader.spotter.free.fr/images/PA_0611-grosplan.png",
    "name": "PA_0611",
    "longitude": "2.4737460000",
    "latitude": "48.9611870000",
    "address": " boulevard Georges Braque"
}, {
    "url": "http://invader.spotter.free.fr/images/PA_0612-grosplan.png",
    "name": "PA_0612",
    "longitude": "2.3523510000",
    "latitude": "48.8589230000",
    "address": " 14 rue du Renard"
}, {
    "url": "http://invader.spotter.free.fr/images/PA_0613-grosplan.png",
    "name": "PA_0613",
    "longitude": "2.3612110000",
    "latitude": "48.8162670000",
    "address": " derrière un poteau à l'entrée d'un tunnel"
}, {
    "url": "http://invader.spotter.free.fr/images/PA_0614-grosplan.png",
    "name": "PA_0614",
    "longitude": "2.2984920000",
    "latitude": "48.8262540000",
    "address": " bretelle de périphérique Porte Brancion"
}, {
    "url": "http://invader.spotter.free.fr/images/PA_0615-grosplan.png",
    "name": "PA_0615",
    "longitude": "2.3767140000",
    "latitude": "48.8525700000",
    "address": " 17 passage de la Bonne Graine"
},